{"type": "FeatureCollection", "features": [{"type": "Feature", "id": 1, "geometry": {"type": "Point", "coordinates": [103.943336559993, 1.32163185993116]}, "properties": {"FID": 1, "ADDRESSBLO": "300", "ADDRESSPOS": "469299", "ADDRESSSTR": "Bedok South Avenue 3", "HYPERLINK": "https://www.onepa.sg/cc/siglap-cc", "NAME": "Siglap CC", "ADDRESSFLO": " ", "ADDRESSUNI": " "}}, {"type": "Feature", "id": 2, "geometry": {"type": "Point", "coordinates": [103.946799766673, 1.31732206675968]}, "properties": {"FID": 2, "ADDRESSBLO": "151", "ADDRESSPOS": "460151", "ADDRESSSTR": "Bedok South Road", "HYPERLINK": " ", "NAME": "Siglap CC (U/C)", "ADDRESSFLO": " ", "ADDRESSUNI": " "}}, {"type": "Feature", "id": 3, "geometry": {"type": "Point", "coordinates": [103.930623474431, 1.31315895310502]}, "properties": {"FID": 3, "ADDRESSBLO": "6", "ADDRESSPOS": "456441", "ADDRESSSTR": "Palm Road", "HYPERLINK": "https://www.onepa.sg/cc/siglap-south-cc", "NAME": "Siglap South CC", "ADDRESSFLO": " ", "ADDRESSUNI": " "}}, {"type": "Feature", "id": 4, "geometry": {"type": "Point", "coordinates": [103.721626405854, 1.33530679812057]}, "properties": {"FID": 4, "ADDRESSBLO": "1", "ADDRESSPOS": "618495", "ADDRESSSTR": "Yung Sheng Road", "HYPERLINK": "https://www.onepa.sg/cc/taman-jurong-cc", "NAME": "Taman Jurong CC", "ADDRESSFLO": " ", "ADDRESSUNI": " "}}, {"type": "Feature", "id": 5, "geometry": {"type": "Point", "coordinates": [103.93968359175, 1.35349615290985]}, "properties": {"FID": 5, "ADDRESSBLO": "1", "ADDRESSPOS": "528523", "ADDRESSSTR": "Tampines Walk", "HYPERLINK": "https://www.onepa.sg/cc/tampines-central-cc", "NAME": "Tampines Central CC", "ADDRESSFLO": "4", "ADDRESSUNI": "4"}}, {"type": "Feature", "id": 6, "geometry": {"type": "Point", "coordinates": [103.947687834642, 1.34581334255648]}, "properties": {"FID": 6, "ADDRESSBLO": "13", "ADDRESSPOS": "529453", "ADDRESSSTR": "Tampines Street 11", "HYPERLINK": "https://www.onepa.sg/cc/tampines-changkat-cc", "NAME": "Tampines Changkat CC", "ADDRESSFLO": "1", "ADDRESSUNI": "5"}}, {"type": "Feature", "id": 7, "geometry": {"type": "Point", "coordinates": [103.954620463426, 1.35335682412583]}, "properties": {"FID": 7, "ADDRESSBLO": "10", "ADDRESSPOS": "529341", "ADDRESSSTR": "Tampines Street 23", "HYPERLINK": "https://www.onepa.sg/cc/tampines-east-cc", "NAME": "Tampines East CC (U/C)", "ADDRESSFLO": " ", "ADDRESSUNI": " "}}, {"type": "Feature", "id": 8, "geometry": {"type": "Point", "coordinates": [103.952659479976, 1.35187111600411]}, "properties": {"FID": 8, "ADDRESSBLO": "209", "ADDRESSPOS": "520209", "ADDRESSSTR": "Tampines Street 21", "HYPERLINK": "https://www.onepa.sg/cc/tampines-east-cc", "NAME": "Tampines East CC (Till 4Q 2019)", "ADDRESSFLO": "1", "ADDRESSUNI": "1339"}}, {"type": "Feature", "id": 9, "geometry": {"type": "Point", "coordinates": [103.946651480052, 1.35727397388892]}, "properties": {"FID": 9, "ADDRESSBLO": "2", "ADDRESSPOS": "529204", "ADDRESSSTR": "Tampines Street 41", "HYPERLINK": "https://www.onepa.sg/cc/tampines-north-cc", "NAME": "Tampines North CC", "ADDRESSFLO": " ", "ADDRESSUNI": " "}}, {"type": "Feature", "id": 10, "geometry": {"type": "Point", "coordinates": [103.935633400808, 1.3487507576584]}, "properties": {"FID": 10, "ADDRESSBLO": "5", "ADDRESSPOS": "529705", "ADDRESSSTR": "Tampines Avenue 3", "HYPERLINK": "https://www.onepa.sg/cc/tampines-west-cc", "NAME": "Tampines West CC", "ADDRESSFLO": " ", "ADDRESSUNI": " "}}, {"type": "Feature", "id": 11, "geometry": {"type": "Point", "coordinates": [103.826877178973, 1.32338446818073]}, "properties": {"FID": 11, "ADDRESSBLO": "245", "ADDRESSPOS": "297829", "ADDRESSSTR": "Whitley Road", "HYPERLINK": "https://www.onepa.sg/cc/tanglin-cc", "NAME": "Tanglin CC", "ADDRESSFLO": " ", "ADDRESSUNI": " "}}, {"type": "Feature", "id": 12, "geometry": {"type": "Point", "coordinates": [103.841584210932, 1.27616697912337]}, "properties": {"FID": 12, "ADDRESSBLO": "101", "ADDRESSPOS": "89774", "ADDRESSSTR": "Cantonment Road", "HYPERLINK": "https://www.onepa.sg/cc/tanjong-pagar-cc", "NAME": "Tanjong Pagar CC", "ADDRESSFLO": " ", "ADDRESSUNI": " "}}, {"type": "Feature", "id": 13, "geometry": {"type": "Point", "coordinates": [103.853913844193, 1.36390466395162]}, "properties": {"FID": 13, "ADDRESSBLO": "414", "ADDRESSPOS": "560414", "ADDRESSSTR": "Ang Mo Kio Avenue 10", "HYPERLINK": "https://www.onepa.sg/cc/teck-ghee-cc", "NAME": "Teck Ghee CC", "ADDRESSFLO": "1", "ADDRESSUNI": "917"}}, {"type": "Feature", "id": 14, "geometry": {"type": "Point", "coordinates": [103.807875431116, 1.27486265663873]}, "properties": {"FID": 14, "ADDRESSBLO": "450", "ADDRESSPOS": "108943", "ADDRESSSTR": "Telok Blangah Street 31", "HYPERLINK": "https://www.onepa.sg/cc/telok-blangah-cc", "NAME": "Telok Blangah CC", "ADDRESSFLO": " ", "ADDRESSUNI": " "}}, {"type": "Feature", "id": 15, "geometry": {"type": "Point", "coordinates": [103.704452679014, 1.34046956593364]}, "properties": {"FID": 15, "ADDRESSBLO": "60", "ADDRESSPOS": "648346", "ADDRESSSTR": "Jurong West Central 3", "HYPERLINK": "https://www.onepa.sg/cc/the-frontier-cc", "NAME": "The Frontier CC", "ADDRESSFLO": "1", "ADDRESSUNI": "1"}}, {"type": "Feature", "id": 16, "geometry": {"type": "Point", "coordinates": [103.873927613858, 1.3700548642117]}, "properties": {"FID": 16, "ADDRESSBLO": "10", "ADDRESSPOS": "555877", "ADDRESSSTR": "Serangoon North Avenue 2", "HYPERLINK": "https://www.onepa.sg/cc/the-serangoon-cc", "NAME": "The Serangoon CC", "ADDRESSFLO": " ", "ADDRESSUNI": " "}}, {"type": "Feature", "id": 17, "geometry": {"type": "Point", "coordinates": [103.836186248201, 1.35129758940966]}, "properties": {"FID": 17, "ADDRESSBLO": "194", "ADDRESSPOS": "574339", "ADDRESSSTR": "Upper Thomson Road", "HYPERLINK": "https://www.onepa.sg/cc/thomson-cc", "NAME": "Thomson CC", "ADDRESSFLO": " ", "ADDRESSUNI": " "}}, {"type": "Feature", "id": 18, "geometry": {"type": "Point", "coordinates": [103.831882714575, 1.28345251805448]}, "properties": {"FID": 18, "ADDRESSBLO": "67A", "ADDRESSPOS": "169715", "ADDRESSSTR": "Eu Chin Street", "HYPERLINK": "https://www.onepa.sg/cc/tiong-bahru-cc", "NAME": "Tiong Bahru CC", "ADDRESSFLO": " ", "ADDRESSUNI": " "}}, {"type": "Feature", "id": 19, "geometry": {"type": "Point", "coordinates": [103.850205298909, 1.33493379992889]}, "properties": {"FID": 19, "ADDRESSBLO": "93", "ADDRESSPOS": "319194", "ADDRESSSTR": "Toa Payoh Central", "HYPERLINK": "https://www.onepa.sg/cc/toa-payoh-central-cc", "NAME": "Toa Payoh Central CC", "ADDRESSFLO": " ", "ADDRESSUNI": " "}}, {"type": "Feature", "id": 20, "geometry": {"type": "Point", "coordinates": [103.854700256218, 1.33627488844699]}, "properties": {"FID": 20, "ADDRESSBLO": "160", "ADDRESSPOS": "319380", "ADDRESSSTR": "Lorong 6 Toa Payoh", "HYPERLINK": "https://www.onepa.sg/cc/toa-payoh-east-cc", "NAME": "Toa Payoh East CC", "ADDRESSFLO": " ", "ADDRESSUNI": " "}}, {"type": "Feature", "id": 21, "geometry": {"type": "Point", "coordinates": [103.85937898161, 1.33489036865827]}, "properties": {"FID": 21, "ADDRESSBLO": "1999", "ADDRESSPOS": "319258", "ADDRESSSTR": "Lorong 8 Toa Payoh", "HYPERLINK": "https://www.onepa.sg/cc/toa-payoh-south-cc", "NAME": "Toa Payoh South CC", "ADDRESSFLO": " ", "ADDRESSUNI": " "}}, {"type": "Feature", "id": 22, "geometry": {"type": "Point", "coordinates": [103.843277324017, 1.33796392936552]}, "properties": {"FID": 22, "ADDRESSBLO": "131", "ADDRESSPOS": "310131", "ADDRESSSTR": "Lorong 1 Toa Payoh", "HYPERLINK": "https://www.onepa.sg/cc/toa-payoh-west-cc", "NAME": "Toa Payoh West CC (Till 3Q 2019)", "ADDRESSFLO": "2", "ADDRESSUNI": "2"}}, {"type": "Feature", "id": 23, "geometry": {"type": "Point", "coordinates": [103.844830873131, 1.33538270974739]}, "properties": {"FID": 23, "ADDRESSBLO": "200", "ADDRESSPOS": "319642", "ADDRESSSTR": "Lorong 2 Toa Payoh", "HYPERLINK": "https://www.onepa.sg/cc/toa-payoh-west-cc", "NAME": "Toa Payoh West CC (U/C)", "ADDRESSFLO": " ", "ADDRESSUNI": " "}}, {"type": "Feature", "id": 24, "geometry": {"type": "Point", "coordinates": [103.789211181508, 1.31200941130316]}, "properties": {"FID": 24, "ADDRESSBLO": "170", "ADDRESSPOS": "279621", "ADDRESSSTR": "Ghim Moh Road", "HYPERLINK": "https://www.onepa.sg/cc/ulu-pandan-cc", "NAME": "Ulu Pandan CC", "ADDRESSFLO": "1", "ADDRESSUNI": "1"}}, {"type": "Feature", "id": 25, "geometry": {"type": "Point", "coordinates": [103.764832078372, 1.30264556160055]}, "properties": {"FID": 25, "ADDRESSBLO": "2", "ADDRESSPOS": "129605", "ADDRESSSTR": "Clementi West Street 2", "HYPERLINK": "https://www.onepa.sg/cc/west-coast-cc", "NAME": "West Coast CC", "ADDRESSFLO": " ", "ADDRESSUNI": " "}}, {"type": "Feature", "id": 26, "geometry": {"type": "Point", "coordinates": [103.85697916425, 1.32463959227534]}, "properties": {"FID": 26, "ADDRESSBLO": "300", "ADDRESSPOS": "327737", "ADDRESSSTR": "Whampoa Drive", "HYPERLINK": "https://www.onepa.sg/cc/whampoa-cc", "NAME": "Whampoa CC", "ADDRESSFLO": " ", "ADDRESSUNI": " "}}, {"type": "Feature", "id": 27, "geometry": {"type": "Point", "coordinates": [103.785006865249, 1.43177101905663]}, "properties": {"FID": 27, "ADDRESSBLO": "353", "ADDRESSPOS": "730353", "ADDRESSSTR": "Woodlands Ave 1", "HYPERLINK": "https://www.onepa.sg/cc/woodgrove-cc", "NAME": "Woodgrove CC", "ADDRESSFLO": "1", "ADDRESSUNI": "753"}}, {"type": "Feature", "id": 28, "geometry": {"type": "Point", "coordinates": [103.788235411107, 1.43973034856759]}, "properties": {"FID": 28, "ADDRESSBLO": "1", "ADDRESSPOS": "738526", "ADDRESSSTR": "Woodlands Street 81", "HYPERLINK": "https://www.onepa.sg/cc/woodlands-cc", "NAME": "Woodlands CC", "ADDRESSFLO": "1", "ADDRESSUNI": "1"}}, {"type": "Feature", "id": 29, "geometry": {"type": "Point", "coordinates": [103.802610986081, 1.43904160690028]}, "properties": {"FID": 29, "ADDRESSBLO": "31", "ADDRESSPOS": "738991", "ADDRESSSTR": "Woodlands Avenue 6", "HYPERLINK": "https://www.onepa.sg/cc/woodlands-galaxy-cc", "NAME": "Woodlands Galaxy CC", "ADDRESSFLO": " ", "ADDRESSUNI": " "}}, {"type": "Feature", "id": 30, "geometry": {"type": "Point", "coordinates": [103.744727855164, 1.39491757994849]}, "properties": {"FID": 30, "ADDRESSBLO": "20", "ADDRESSPOS": "689286", "ADDRESSSTR": "Choa Chu Kang Street 52", "HYPERLINK": "https://www.onepa.sg/cc/yew-tee-cc", "NAME": "Yew Tee CC", "ADDRESSFLO": "1", "ADDRESSUNI": "1"}}, {"type": "Feature", "id": 31, "geometry": {"type": "Point", "coordinates": [103.841428124934, 1.3815172706733]}, "properties": {"FID": 31, "ADDRESSBLO": "50", "ADDRESSPOS": "569163", "ADDRESSSTR": "Ang Mo Kio Street 61", "HYPERLINK": "https://www.onepa.sg/cc/yio-chu-kang-cc", "NAME": "Yio Chu Kang CC", "ADDRESSFLO": " ", "ADDRESSUNI": " "}}, {"type": "Feature", "id": 32, "geometry": {"type": "Point", "coordinates": [103.846961920553, 1.42553144294495]}, "properties": {"FID": 32, "ADDRESSBLO": "412/413", "ADDRESSPOS": "760412", "ADDRESSSTR": "Yishun Ring Road", "HYPERLINK": " ", "NAME": "Yishun Link CC", "ADDRESSFLO": " ", "ADDRESSUNI": " "}}, {"type": "Feature", "id": 33, "geometry": {"type": "Point", "coordinates": [103.737065915263, 1.3399728555024]}, "properties": {"FID": 33, "ADDRESSBLO": "90", "ADDRESSPOS": "609958", "ADDRESSSTR": "Boon Lay Way", "HYPERLINK": "https://www.onepa.sg/cc/yuhua-cc", "NAME": "Yuhua CC", "ADDRESSFLO": " ", "ADDRESSUNI": " "}}, {"type": "Feature", "id": 34, "geometry": {"type": "Point", "coordinates": [103.771520840092, 1.38680683371859]}, "properties": {"FID": 34, "ADDRESSBLO": "1", "ADDRESSPOS": "677738", "ADDRESSSTR": "Segar Road", "HYPERLINK": "https://www.onepa.sg/cc/zhenghua-cc", "NAME": "Zhenghua CC", "ADDRESSFLO": " ", "ADDRESSUNI": " "}}, {"type": "Feature", "id": 35, "geometry": {"type": "Point", "coordinates": [103.846645934005, 1.28612083390632]}, "properties": {"FID": 35, "ADDRESSBLO": "20", "ADDRESSPOS": "58284", "ADDRESSSTR": "Upper Pickering Street", "HYPERLINK": " ", "NAME": "imPAct@Hong Lim Green", "ADDRESSFLO": " ", "ADDRESSUNI": " "}}, {"type": "Feature", "id": 36, "geometry": {"type": "Point", "coordinates": [103.792240775019, 1.42749277783723]}, "properties": {"FID": 36, "ADDRESSBLO": "120", "ADDRESSPOS": "739069", "ADDRESSSTR": "Woodlands Avenue 1", "HYPERLINK": "https://www.onepa.sg/cc/ace-the-place-cc", "NAME": "ACE The Place CC", "ADDRESSFLO": " ", "ADDRESSUNI": " "}}, {"type": "Feature", "id": 37, "geometry": {"type": "Point", "coordinates": [103.889546235205, 1.35465808038733]}, "properties": {"FID": 37, "ADDRESSBLO": "110", "ADDRESSPOS": "530110", "ADDRESSSTR": "Hougang Avenue 1", "HYPERLINK": "https://www.onepa.sg/cc/aljunied-cc", "NAME": "Aljunied CC", "ADDRESSFLO": "1", "ADDRESSUNI": "1048"}}, {"type": "Feature", "id": 38, "geometry": {"type": "Point", "coordinates": [103.886665688311, 1.39712792135146]}, "properties": {"FID": 38, "ADDRESSBLO": "59", "ADDRESSPOS": "544965", "ADDRESSSTR": "Anchorvale Road", "HYPERLINK": "https://www.onepa.sg/cc/anchorvale-cc", "NAME": "Anchorvale CC", "ADDRESSFLO": " ", "ADDRESSUNI": " "}}, {"type": "Feature", "id": 39, "geometry": {"type": "Point", "coordinates": [103.840668132134, 1.36683348528864]}, "properties": {"FID": 39, "ADDRESSBLO": "795", "ADDRESSPOS": "569976", "ADDRESSSTR": "Ang Mo Kio Avenue 1", "HYPERLINK": "https://www.onepa.sg/cc/ang-mo-kio-cc", "NAME": "Ang Mo Kio CC", "ADDRESSFLO": " ", "ADDRESSUNI": " "}}, {"type": "Feature", "id": 40, "geometry": {"type": "Point", "coordinates": [103.747540201823, 1.32079930714281]}, "properties": {"FID": 40, "ADDRESSBLO": "150", "ADDRESSPOS": "609335", "ADDRESSSTR": "Pandan Gardens", "HYPERLINK": "https://www.onepa.sg/cc/ayer-rajah-cc", "NAME": "Ayer Rajah CC", "ADDRESSFLO": " ", "ADDRESSUNI": " "}}, {"type": "Feature", "id": 41, "geometry": {"type": "Point", "coordinates": [103.936047829817, 1.32424659752267]}, "properties": {"FID": 41, "ADDRESSBLO": "850", "ADDRESSPOS": "467352", "ADDRESSSTR": "New Upper Changi Road", "HYPERLINK": "https://www.onepa.sg/cc/bedok-cc", "NAME": "Bedok CC", "ADDRESSFLO": " ", "ADDRESSUNI": " "}}, {"type": "Feature", "id": 42, "geometry": {"type": "Point", "coordinates": [103.850509277484, 1.34951162103296]}, "properties": {"FID": 42, "ADDRESSBLO": "51", "ADDRESSPOS": "579799", "ADDRESSSTR": "Bishan Street 13", "HYPERLINK": "https://www.onepa.sg/cc/bishan-cc", "NAME": "Bishan CC", "ADDRESSFLO": " ", "ADDRESSUNI": " "}}, {"type": "Feature", "id": 43, "geometry": {"type": "Point", "coordinates": [103.845592714348, 1.35857600295713]}, "properties": {"FID": 43, "ADDRESSBLO": "233", "ADDRESSPOS": "570233", "ADDRESSSTR": "Bishan Street 22", "HYPERLINK": "https://www.onepa.sg/cc/bishan-north-cc", "NAME": "Bishan North CC", "ADDRESSFLO": "1", "ADDRESSUNI": "126"}}, {"type": "Feature", "id": 44, "geometry": {"type": "Point", "coordinates": [103.711380182884, 1.34832322894444]}, "properties": {"FID": 44, "ADDRESSBLO": "10", "ADDRESSPOS": "649882", "ADDRESSSTR": "Boon Lay Place", "HYPERLINK": "https://www.onepa.sg/cc/boon-lay-cc", "NAME": "Boon Lay CC", "ADDRESSFLO": " ", "ADDRESSUNI": " "}}, {"type": "Feature", "id": 45, "geometry": {"type": "Point", "coordinates": [103.8703678757, 1.35161224643204]}, "properties": {"FID": 45, "ADDRESSBLO": "50", "ADDRESSPOS": "556129", "ADDRESSSTR": "Serangoon Avenue 2", "HYPERLINK": "https://www.onepa.sg/cc/braddell-heights-cc", "NAME": "Braddell Heights CC", "ADDRESSFLO": "1", "ADDRESSUNI": "1"}}, {"type": "Feature", "id": 46, "geometry": {"type": "Point", "coordinates": [103.747514397637, 1.35019079790887]}, "properties": {"FID": 46, "ADDRESSBLO": "21", "ADDRESSPOS": "659959", "ADDRESSSTR": "Bukit Batok Central", "HYPERLINK": "https://www.onepa.sg/cc/bukit-batok-cc", "NAME": "Bukit Batok CC", "ADDRESSFLO": " ", "ADDRESSUNI": " "}}, {"type": "Feature", "id": 47, "geometry": {"type": "Point", "coordinates": [103.75819582862, 1.34898739052022]}, "properties": {"FID": 47, "ADDRESSBLO": "23", "ADDRESSPOS": "659841", "ADDRESSSTR": "Bukit Batok East Avenue 4", "HYPERLINK": "https://www.onepa.sg/cc/bukit-batok-east-cc", "NAME": "Bukit Batok East CC", "ADDRESSFLO": " ", "ADDRESSUNI": " "}}, {"type": "Feature", "id": 48, "geometry": {"type": "Point", "coordinates": [103.815828550305, 1.28525426592193]}, "properties": {"FID": 48, "ADDRESSBLO": "4000", "ADDRESSPOS": "159465", "ADDRESSSTR": "Jalan Bukit Merah", "HYPERLINK": "https://www.onepa.sg/cc/bukit-merah-cc", "NAME": "Bukit Merah CC", "ADDRESSFLO": " ", "ADDRESSUNI": " "}}, {"type": "Feature", "id": 49, "geometry": {"type": "Point", "coordinates": [103.770558810502, 1.3764507546724]}, "properties": {"FID": 49, "ADDRESSBLO": "8", "ADDRESSPOS": "678295", "ADDRESSSTR": "Pending Road", "HYPERLINK": "https://www.onepa.sg/cc/bukit-panjang-cc", "NAME": "Bukit Panjang CC", "ADDRESSFLO": " ", "ADDRESSUNI": " "}}, {"type": "Feature", "id": 50, "geometry": {"type": "Point", "coordinates": [103.771609618248, 1.34050086160478]}, "properties": {"FID": 50, "ADDRESSBLO": "20", "ADDRESSPOS": "596569", "ADDRESSSTR": "Toh Yi Drive", "HYPERLINK": "https://www.onepa.sg/cc/bukit-timah-cc", "NAME": "Bukit Timah CC", "ADDRESSFLO": " ", "ADDRESSUNI": " "}}, {"type": "Feature", "id": 51, "geometry": {"type": "Point", "coordinates": [103.792547484983, 1.30918211013944]}, "properties": {"FID": 51, "ADDRESSBLO": "36", "ADDRESSPOS": "270036", "ADDRESSSTR": "Holland Drive", "HYPERLINK": "https://www.onepa.sg/cc/buona-vista-cc", "NAME": "Buona Vista CC", "ADDRESSFLO": "1", "ADDRESSUNI": "1"}}, {"type": "Feature", "id": 52, "geometry": {"type": "Point", "coordinates": [103.838882717982, 1.31038767379695]}, "properties": {"FID": 52, "ADDRESSBLO": "1", "ADDRESSPOS": "229944", "ADDRESSSTR": "Anthony Road", "HYPERLINK": "https://www.onepa.sg/cc/cairnhill-cc", "NAME": "Cairnhill CC", "ADDRESSFLO": " ", "ADDRESSUNI": " "}}, {"type": "Feature", "id": 53, "geometry": {"type": "Point", "coordinates": [103.819473732857, 1.4450441304468]}, "properties": {"FID": 53, "ADDRESSBLO": "2", "ADDRESSPOS": "757632", "ADDRESSSTR": "Sembawang Crescent", "HYPERLINK": "https://www.onepa.sg/cc/canberra-cc", "NAME": "Canberra CC", "ADDRESSFLO": " ", "ADDRESSUNI": " "}}, {"type": "Feature", "id": 54, "geometry": {"type": "Point", "coordinates": [103.955110949916, 1.34493552786123]}, "properties": {"FID": 54, "ADDRESSBLO": "10", "ADDRESSPOS": "529915", "ADDRESSSTR": "Simei Street 2", "HYPERLINK": "https://www.onepa.sg/cc/changi-simei-cc", "NAME": "Changi Simei CC", "ADDRESSFLO": " ", "ADDRESSUNI": " "}}, {"type": "Feature", "id": 55, "geometry": {"type": "Point", "coordinates": [103.849569978054, 1.37178044674326]}, "properties": {"FID": 55, "ADDRESSBLO": "6", "ADDRESSPOS": "569205", "ADDRESSSTR": "Ang Mo Kio Street 53", "HYPERLINK": "https://www.onepa.sg/cc/cheng-san-cc", "NAME": "Cheng San CC", "ADDRESSFLO": " ", "ADDRESSUNI": " "}}, {"type": "Feature", "id": 56, "geometry": {"type": "Point", "coordinates": [103.829234878511, 1.43083237862299]}, "properties": {"FID": 56, "ADDRESSBLO": "21", "ADDRESSPOS": "768677", "ADDRESSSTR": "Yishun Ring Road", "HYPERLINK": "https://www.onepa.sg/cc/chong-pang-cc", "NAME": "Chong Pang CC", "ADDRESSFLO": " ", "ADDRESSUNI": " "}}, {"type": "Feature", "id": 57, "geometry": {"type": "Point", "coordinates": [103.751903880191, 1.38115529003035]}, "properties": {"FID": 57, "ADDRESSBLO": "35", "ADDRESSPOS": "688892", "ADDRESSSTR": "Teck Whye Avenue", "HYPERLINK": "https://www.onepa.sg/cc/chua-chu-kang-cc", "NAME": "Chua Chu Kang CC", "ADDRESSFLO": " ", "ADDRESSUNI": " "}}, {"type": "Feature", "id": 58, "geometry": {"type": "Point", "coordinates": [103.882894176612, 1.37514898458847]}, "properties": {"FID": 58, "ADDRESSBLO": "51", "ADDRESSPOS": "538776", "ADDRESSSTR": "Hougang Avenue 9", "HYPERLINK": "https://www.onepa.sg/cc/ci-yuan-cc", "NAME": "Ci Yuan CC", "ADDRESSFLO": "1", "ADDRESSUNI": "1"}}, {"type": "Feature", "id": 59, "geometry": {"type": "Point", "coordinates": [103.768153683949, 1.31881519357454]}, "properties": {"FID": 59, "ADDRESSBLO": "220", "ADDRESSPOS": "129880", "ADDRESSSTR": "Clementi Avenue 4", "HYPERLINK": "https://www.onepa.sg/cc/clementi-cc", "NAME": "Clementi CC", "ADDRESSFLO": " ", "ADDRESSUNI": " "}}, {"type": "Feature", "id": 60, "geometry": {"type": "Point", "coordinates": [103.783271668514, 1.30252994647179]}, "properties": {"FID": 60, "ADDRESSBLO": "1", "ADDRESSPOS": "130001", "ADDRESSSTR": "Dover Road", "HYPERLINK": "https://www.onepa.sg/cc/dover-cc", "NAME": "Dover CC", "ADDRESSFLO": "1", "ADDRESSUNI": "300"}}, {"type": "Feature", "id": 61, "geometry": {"type": "Point", "coordinates": [103.915143556115, 1.33255277879029]}, "properties": {"FID": 61, "ADDRESSBLO": "180", "ADDRESSPOS": "479220", "ADDRESSSTR": "Bedok Reservoir Road", "HYPERLINK": "https://www.onepa.sg/cc/eunos-cc", "NAME": "Eunos CC", "ADDRESSFLO": " ", "ADDRESSUNI": " "}}, {"type": "Feature", "id": 62, "geometry": {"type": "Point", "coordinates": [103.936613619697, 1.33070762076922]}, "properties": {"FID": 62, "ADDRESSBLO": "20", "ADDRESSPOS": "469644", "ADDRESSSTR": "Bedok North Street 2", "HYPERLINK": "https://www.onepa.sg/cc/fengshan-cc", "NAME": "Fengshan CC (U/C)", "ADDRESSFLO": " ", "ADDRESSUNI": " "}}, {"type": "Feature", "id": 63, "geometry": {"type": "Point", "coordinates": [103.940088410196, 1.3303814644177]}, "properties": {"FID": 63, "ADDRESSBLO": "187B", "ADDRESSPOS": "462187", "ADDRESSSTR": "Bedok North Street 4", "HYPERLINK": "https://www.onepa.sg/cc/fengshan-cc", "NAME": "Fengshan CC (Till 3Q 2020)", "ADDRESSFLO": " ", "ADDRESSUNI": "1"}}, {"type": "Feature", "id": 64, "geometry": {"type": "Point", "coordinates": [103.774811855067, 1.42952981919519]}, "properties": {"FID": 64, "ADDRESSBLO": "1", "ADDRESSPOS": "738581", "ADDRESSSTR": "Woodlands Street 31", "HYPERLINK": "https://www.onepa.sg/cc/fuchun-cc", "NAME": "Fuchun CC", "ADDRESSFLO": "1", "ADDRESSUNI": "2"}}, {"type": "Feature", "id": 65, "geometry": {"type": "Point", "coordinates": [103.698726261357, 1.34868982299659]}, "properties": {"FID": 65, "ADDRESSBLO": "1", "ADDRESSPOS": "649149", "ADDRESSSTR": "Jurong West Street 74", "HYPERLINK": "https://www.onepa.sg/cc/gek-poh-ville-cc", "NAME": "Gek Poh Ville CC", "ADDRESSFLO": " ", "ADDRESSUNI": " "}}, {"type": "Feature", "id": 66, "geometry": {"type": "Point", "coordinates": [103.896747971992, 1.31646237974826]}, "properties": {"FID": 66, "ADDRESSBLO": "1", "ADDRESSPOS": "408528", "ADDRESSSTR": "Engku Aman Turn", "HYPERLINK": "https://www.onepa.sg/cc/geylang-serai-cc", "NAME": "Geylang Serai CC", "ADDRESSFLO": "1", "ADDRESSUNI": "1"}}, {"type": "Feature", "id": 67, "geometry": {"type": "Point", "coordinates": [103.87238786412, 1.31569110603608]}, "properties": {"FID": 67, "ADDRESSBLO": "1205", "ADDRESSPOS": "387311", "ADDRESSSTR": "Upper Boon Keng Road", "HYPERLINK": "https://www.onepa.sg/cc/geylang-west-cc", "NAME": "Geylang West CC", "ADDRESSFLO": " ", "ADDRESSUNI": " "}}, {"type": "Feature", "id": 68, "geometry": {"type": "Point", "coordinates": [103.82331230477, 1.28601171029283]}, "properties": {"FID": 68, "ADDRESSBLO": "500", "ADDRESSPOS": "159682", "ADDRESSSTR": "Bukit Merah View", "HYPERLINK": "https://www.onepa.sg/cc/henderson-cc", "NAME": "Henderson CC", "ADDRESSFLO": " ", "ADDRESSUNI": " "}}, {"type": "Feature", "id": 69, "geometry": {"type": "Point", "coordinates": [103.764266391554, 1.36196724402447]}, "properties": {"FID": 69, "ADDRESSBLO": "1", "ADDRESSPOS": "667970", "ADDRESSSTR": "Hillview Rise", "HYPERLINK": "https://www.onepa.sg/cc/hillview-cc", "NAME": "Hillview CC", "ADDRESSFLO": "1", "ADDRESSUNI": "1"}}, {"type": "Feature", "id": 70, "geometry": {"type": "Point", "coordinates": [103.749456848676, 1.35905888116064]}, "properties": {"FID": 70, "ADDRESSBLO": "30", "ADDRESSPOS": "659440", "ADDRESSSTR": "Bukit Batok Street 31", "HYPERLINK": "https://www.onepa.sg/cc/hong-kah-north-cc", "NAME": "Hong Kah North CC", "ADDRESSFLO": " ", "ADDRESSUNI": " "}}, {"type": "Feature", "id": 71, "geometry": {"type": "Point", "coordinates": [103.892622237488, 1.36475743956539]}, "properties": {"FID": 71, "ADDRESSBLO": "35", "ADDRESSPOS": "538840", "ADDRESSSTR": "Hougang Avenue 3", "HYPERLINK": "https://www.onepa.sg/cc/hougang-cc", "NAME": "Hougang CC", "ADDRESSFLO": " ", "ADDRESSUNI": " "}}, {"type": "Feature", "id": 72, "geometry": {"type": "Point", "coordinates": [103.873890984931, 1.37360009759595]}, "properties": {"FID": 72, "ADDRESSBLO": "535", "ADDRESSPOS": "550535", "ADDRESSSTR": "Serangoon North Avenue 4", "HYPERLINK": "https://www.onepa.sg/cc/hwi-yoh-cc", "NAME": "Hwi Yoh CC", "ADDRESSFLO": "1", "ADDRESSUNI": "179"}}, {"type": "Feature", "id": 73, "geometry": {"type": "Point", "coordinates": [103.861786571419, 1.30800416750099]}, "properties": {"FID": 73, "ADDRESSBLO": "69", "ADDRESSPOS": "208737", "ADDRESSSTR": "Jellicoe Road", "HYPERLINK": "https://www.onepa.sg/cc/jalan-besar-cc", "NAME": "Jalan Besar CC", "ADDRESSFLO": " ", "ADDRESSUNI": " "}}, {"type": "Feature", "id": 74, "geometry": {"type": "Point", "coordinates": [103.904168865, 1.3074572027774]}, "properties": {"FID": 74, "ADDRESSBLO": "405", "ADDRESSPOS": "427633", "ADDRESSSTR": "Joo Chiat Road", "HYPERLINK": "https://www.onepa.sg/cc/joo-chiat-cc", "NAME": "Joo Chiat CC", "ADDRESSFLO": " ", "ADDRESSUNI": " "}}, {"type": "Feature", "id": 75, "geometry": {"type": "Point", "coordinates": [103.725341559472, 1.35055603351276]}, "properties": {"FID": 75, "ADDRESSBLO": "6", "ADDRESSPOS": "649520", "ADDRESSSTR": "Jurong West Avenue 1", "HYPERLINK": "https://www.onepa.sg/cc/jurong-green-cc", "NAME": "Jurong Green CC", "ADDRESSFLO": " ", "ADDRESSUNI": " "}}, {"type": "Feature", "id": 76, "geometry": {"type": "Point", "coordinates": [103.717011849441, 1.34942131108968]}, "properties": {"FID": 76, "ADDRESSBLO": "535", "ADDRESSPOS": "640535", "ADDRESSSTR": "Jurong West Street 52", "HYPERLINK": "https://www.onepa.sg/cc/jurong-spring-cc", "NAME": "Jurong Spring CC (Till 3Q 2020)", "ADDRESSFLO": "1", "ADDRESSUNI": "485"}}, {"type": "Feature", "id": 77, "geometry": {"type": "Point", "coordinates": [103.718150452079, 1.3483301625928]}, "properties": {"FID": 77, "ADDRESSBLO": "8", "ADDRESSPOS": "649296", "ADDRESSSTR": "Jurong West Street 52", "HYPERLINK": "https://www.onepa.sg/cc/jurong-spring-cc", "NAME": "Jurong Spring CC (U/C)", "ADDRESSFLO": " ", "ADDRESSUNI": " "}}, {"type": "Feature", "id": 78, "geometry": {"type": "Point", "coordinates": [103.926848603129, 1.33335815008301]}, "properties": {"FID": 78, "ADDRESSBLO": "670", "ADDRESSPOS": "469627", "ADDRESSSTR": "Bedok North Street 3", "HYPERLINK": "https://www.onepa.sg/cc/kaki-bukit-cc", "NAME": "Kaki Bukit CC", "ADDRESSFLO": " ", "ADDRESSUNI": " "}}, {"type": "Feature", "id": 79, "geometry": {"type": "Point", "coordinates": [103.862373281602, 1.31780290135984]}, "properties": {"FID": 79, "ADDRESSBLO": "45", "ADDRESSPOS": "339771", "ADDRESSSTR": "Boon Keng Road", "HYPERLINK": "https://www.onepa.sg/cc/kallang-cc", "NAME": "Kallang CC", "ADDRESSFLO": " ", "ADDRESSUNI": " "}}, {"type": "Feature", "id": 80, "geometry": {"type": "Point", "coordinates": [103.931663536965, 1.32699716040283]}, "properties": {"FID": 80, "ADDRESSBLO": "11", "ADDRESSPOS": "469662", "ADDRESSSTR": "Bedok North Street 1", "HYPERLINK": "https://www.onepa.sg/cc/kampong-chai-chee-cc", "NAME": "Kampong Chai Chee CC", "ADDRESSFLO": " ", "ADDRESSUNI": " "}}, {"type": "Feature", "id": 81, "geometry": {"type": "Point", "coordinates": [103.863597856471, 1.30279521929868]}, "properties": {"FID": 81, "ADDRESSBLO": "385", "ADDRESSPOS": "199581", "ADDRESSSTR": "Beach Road", "HYPERLINK": "https://www.onepa.sg/cc/kampong-glam-cc", "NAME": "Kampong Glam CC", "ADDRESSFLO": " ", "ADDRESSUNI": " "}}, {"type": "Feature", "id": 82, "geometry": {"type": "Point", "coordinates": [103.912698656346, 1.32315519887042]}, "properties": {"FID": 82, "ADDRESSBLO": "5", "ADDRESSPOS": "417408", "ADDRESSSTR": "Lengkong Tiga", "HYPERLINK": "https://www.onepa.sg/cc/kampong-kembangan-cc", "NAME": "Kampong Kembangan CC", "ADDRESSFLO": " ", "ADDRESSUNI": " "}}, {"type": "Feature", "id": 83, "geometry": {"type": "Point", "coordinates": [103.900750126079, 1.31784643672887]}, "properties": {"FID": 83, "ADDRESSBLO": "10", "ADDRESSPOS": "409075", "ADDRESSSTR": "Jalan Ubi", "HYPERLINK": "https://www.onepa.sg/cc/kampong-ubi-cc", "NAME": "Kampong Ubi CC", "ADDRESSFLO": " ", "ADDRESSUNI": " "}}, {"type": "Feature", "id": 84, "geometry": {"type": "Point", "coordinates": [103.88474893675, 1.30059117785566]}, "properties": {"FID": 84, "ADDRESSBLO": "51", "ADDRESSPOS": "438178", "ADDRESSSTR": "Kampong Arang Road", "HYPERLINK": "https://www.onepa.sg/cc/katong-cc", "NAME": "Katong CC", "ADDRESSFLO": " ", "ADDRESSUNI": " "}}, {"type": "Feature", "id": 85, "geometry": {"type": "Point", "coordinates": [103.744923814519, 1.38406516650028]}, "properties": {"FID": 85, "ADDRESSBLO": "2", "ADDRESSPOS": "689687", "ADDRESSSTR": "Choa Chu Kang Loop", "HYPERLINK": "https://www.onepa.sg/cc/keat-hong-cc", "NAME": "Keat Hong CC", "ADDRESSFLO": "1", "ADDRESSUNI": "1"}}, {"type": "Feature", "id": 86, "geometry": {"type": "Point", "coordinates": [103.837612428983, 1.37300749725405]}, "properties": {"FID": 86, "ADDRESSBLO": "216", "ADDRESSPOS": "569897", "ADDRESSSTR": "Ang Mo Kio Avenue 4", "HYPERLINK": "https://www.onepa.sg/cc/kebun-baru-cc", "NAME": "Kebun Baru CC", "ADDRESSFLO": " ", "ADDRESSUNI": " "}}, {"type": "Feature", "id": 87, "geometry": {"type": "Point", "coordinates": [103.830706447607, 1.28968265523971]}, "properties": {"FID": 87, "ADDRESSBLO": "570", "ADDRESSPOS": "169640", "ADDRESSSTR": "Havelock Road", "HYPERLINK": "https://www.onepa.sg/cc/kim-seng-cc", "NAME": "Kim Seng CC", "ADDRESSFLO": " ", "ADDRESSUNI": " "}}, {"type": "Feature", "id": 88, "geometry": {"type": "Point", "coordinates": [103.870163153936, 1.32369077741397]}, "properties": {"FID": 88, "ADDRESSBLO": "97", "ADDRESSPOS": "330097", "ADDRESSSTR": "Geylang Bahru", "HYPERLINK": "https://www.onepa.sg/cc/kolam-ayer-cc", "NAME": "Kolam Ayer CC (Till 3Q 2019)", "ADDRESSFLO": "1", "ADDRESSUNI": "3178"}}, {"type": "Feature", "id": 89, "geometry": {"type": "Point", "coordinates": [103.869693092424, 1.3241543172955]}, "properties": {"FID": 89, "ADDRESSBLO": "1", "ADDRESSPOS": "339631", "ADDRESSSTR": "Geylang Bahru Lane", "HYPERLINK": "https://www.onepa.sg/cc/kolam-ayer-cc", "NAME": "Kolam Ayer CC (U/C)", "ADDRESSFLO": " ", "ADDRESSUNI": " "}}, {"type": "Feature", "id": 90, "geometry": {"type": "Point", "coordinates": [103.843012852719, 1.28119257983426]}, "properties": {"FID": 90, "ADDRESSBLO": "28A", "ADDRESSPOS": "88995", "ADDRESSSTR": "Kreta Ayer Road", "HYPERLINK": "https://www.onepa.sg/cc/kreta-ayer-cc", "NAME": "Kreta Ayer CC", "ADDRESSFLO": " ", "ADDRESSUNI": " "}}, {"type": "Feature", "id": 91, "geometry": {"type": "Point", "coordinates": [103.814448346363, 1.28978711349153]}, "properties": {"FID": 91, "ADDRESSBLO": "400", "ADDRESSPOS": "159049", "ADDRESSSTR": "Lengkok Bahru", "HYPERLINK": "https://www.onepa.sg/cc/leng-kee-cc", "NAME": "Leng Kee CC", "ADDRESSFLO": " ", "ADDRESSUNI": " "}}, {"type": "Feature", "id": 92, "geometry": {"type": "Point", "coordinates": [103.884481188922, 1.32353708829563]}, "properties": {"FID": 92, "ADDRESSBLO": "400", "ADDRESSPOS": "379131", "ADDRESSSTR": "Paya Lebar Way", "HYPERLINK": "https://www.onepa.sg/cc/macpherson-cc", "NAME": "MacPherson CC", "ADDRESSFLO": " ", "ADDRESSUNI": " "}}, {"type": "Feature", "id": 93, "geometry": {"type": "Point", "coordinates": [103.909545281701, 1.30482859732325]}, "properties": {"FID": 93, "ADDRESSBLO": "278", "ADDRESSPOS": "449282", "ADDRESSSTR": "Marine Parade Road", "HYPERLINK": "https://www.onepa.sg/cc/marine-parade-cc", "NAME": "Marine Parade CC", "ADDRESSFLO": " ", "ADDRESSUNI": " "}}, {"type": "Feature", "id": 94, "geometry": {"type": "Point", "coordinates": [103.773615186565, 1.44065677473327]}, "properties": {"FID": 94, "ADDRESSBLO": "100", "ADDRESSPOS": "739980", "ADDRESSSTR": "Admiralty Road", "HYPERLINK": "https://www.onepa.sg/cc/marsiling-cc", "NAME": "Marsiling CC", "ADDRESSFLO": " ", "ADDRESSUNI": " "}}, {"type": "Feature", "id": 95, "geometry": {"type": "Point", "coordinates": [103.884678203719, 1.31004800206884]}, "properties": {"FID": 95, "ADDRESSBLO": "54", "ADDRESSPOS": "390054", "ADDRESSSTR": "Cassia Crescent", "HYPERLINK": "https://www.onepa.sg/cc/mountbatten-cc", "NAME": "Mountbatten CC (Till further notice)", "ADDRESSFLO": "1", "ADDRESSUNI": "137"}}, {"type": "Feature", "id": 96, "geometry": {"type": "Point", "coordinates": [103.886948106116, 1.31008168701682]}, "properties": {"FID": 96, "ADDRESSBLO": "35", "ADDRESSPOS": "399479", "ADDRESSSTR": "Jalan Satu", "HYPERLINK": "https://www.onepa.sg/cc/mountbatten-cc", "NAME": "Mountbatten CC (U/C)", "ADDRESSFLO": " ", "ADDRESSUNI": " "}}, {"type": "Feature", "id": 97, "geometry": {"type": "Point", "coordinates": [103.692320228323, 1.34236402839817]}, "properties": {"FID": 97, "ADDRESSBLO": "60", "ADDRESSPOS": "649040", "ADDRESSSTR": "Jurong West Street 91", "HYPERLINK": "https://www.onepa.sg/cc/nanyang-cc", "NAME": "Nanyang CC", "ADDRESSFLO": " ", "ADDRESSUNI": " "}}, {"type": "Feature", "id": 98, "geometry": {"type": "Point", "coordinates": [103.836142030637, 1.42799995739089]}, "properties": {"FID": 98, "ADDRESSBLO": "1", "ADDRESSPOS": "768019", "ADDRESSSTR": "Northpoint Drive", "HYPERLINK": "https://www.onepa.sg/cc/nee-soon-central-cc", "NAME": "Nee Soon Central CC", "ADDRESSFLO": "1", "ADDRESSUNI": "201"}}, {"type": "Feature", "id": 99, "geometry": {"type": "Point", "coordinates": [103.838488077255, 1.43102086941104]}, "properties": {"FID": 99, "ADDRESSBLO": "1", "ADDRESSPOS": "768893", "ADDRESSSTR": "Yishun Avenue 9", "HYPERLINK": "https://www.onepa.sg/cc/nee-soon-east-cc", "NAME": "Nee Soon East CC", "ADDRESSFLO": " ", "ADDRESSUNI": " "}}, {"type": "Feature", "id": 100, "geometry": {"type": "Point", "coordinates": [103.834693138891, 1.41517497094336]}, "properties": {"FID": 100, "ADDRESSBLO": "30", "ADDRESSPOS": "768455", "ADDRESSSTR": "Yishun Street 81", "HYPERLINK": "https://www.onepa.sg/cc/nee-soon-south-cc", "NAME": "Nee Soon South CC", "ADDRESSFLO": " ", "ADDRESSUNI": " "}}, {"type": "Feature", "id": 101, "geometry": {"type": "Point", "coordinates": [103.847288242611, 1.4196068195313]}, "properties": {"FID": 101, "ADDRESSBLO": "431A", "ADDRESSPOS": "761431", "ADDRESSSTR": "Yishun Avenue 1", "HYPERLINK": "https://www.onepa.sg/cc/nee-soon-spring-cc", "NAME": "Nee Soon Spring CC", "ADDRESSFLO": "1", "ADDRESSUNI": "507"}}, {"type": "Feature", "id": 102, "geometry": {"type": "Point", "coordinates": [103.959198002066, 1.36858703306]}, "properties": {"FID": 102, "ADDRESSBLO": "1", "ADDRESSPOS": "519457", "ADDRESSSTR": "Pasir Ris Drive 4", "HYPERLINK": "https://www.onepa.sg/cc/pasir-ris-east-cc", "NAME": "Pasir Ris East CC", "ADDRESSFLO": "1", "ADDRESSUNI": "8"}}, {"type": "Feature", "id": 103, "geometry": {"type": "Point", "coordinates": [103.942476410887, 1.37842943970526]}, "properties": {"FID": 103, "ADDRESSBLO": "93", "ADDRESSPOS": "519498", "ADDRESSSTR": "Pasir Ris Drive 3", "HYPERLINK": "https://www.onepa.sg/cc/pasir-ris-elias-cc", "NAME": "Pasir Ris Elias CC", "ADDRESSFLO": " ", "ADDRESSUNI": " "}}, {"type": "Feature", "id": 104, "geometry": {"type": "Point", "coordinates": [103.886092086231, 1.35779860957494]}, "properties": {"FID": 104, "ADDRESSBLO": "207", "ADDRESSPOS": "530207", "ADDRESSSTR": "Hougang Street 21", "HYPERLINK": "https://www.onepa.sg/cc/paya-lebar-kovan-cc", "NAME": "Paya Lebar Kovan CC", "ADDRESSFLO": " ", "ADDRESSUNI": " "}}, {"type": "Feature", "id": 105, "geometry": {"type": "Point", "coordinates": [103.851373846882, 1.31305864843817]}, "properties": {"FID": 105, "ADDRESSBLO": "21", "ADDRESSPOS": "219458", "ADDRESSSTR": "Gloucester Road", "HYPERLINK": "https://www.onepa.sg/cc/pek-kio-cc", "NAME": "Pek Kio CC", "ADDRESSFLO": "1", "ADDRESSUNI": "1"}}, {"type": "Feature", "id": 106, "geometry": {"type": "Point", "coordinates": [103.86703683305, 1.33253591244791]}, "properties": {"FID": 106, "ADDRESSBLO": "6", "ADDRESSPOS": "358361", "ADDRESSSTR": "Potong Pasir Avenue 2", "HYPERLINK": "https://www.onepa.sg/cc/potong-pasir-cc", "NAME": "Potong Pasir CC", "ADDRESSFLO": " ", "ADDRESSUNI": " "}}, {"type": "Feature", "id": 107, "geometry": {"type": "Point", "coordinates": [103.913464119415, 1.39360623888601]}, "properties": {"FID": 107, "ADDRESSBLO": "80", "ADDRESSPOS": "828815", "ADDRESSSTR": "Punggol Field", "HYPERLINK": "https://www.onepa.sg/cc/punggol-21-cc", "NAME": "Punggol 21 CC", "ADDRESSFLO": "1", "ADDRESSUNI": "1"}}, {"type": "Feature", "id": 108, "geometry": {"type": "Point", "coordinates": [103.891815336496, 1.37437882871754]}, "properties": {"FID": 108, "ADDRESSBLO": "3", "ADDRESSPOS": "538808", "ADDRESSSTR": "Hougang Avenue 6", "HYPERLINK": "https://www.onepa.sg/cc/punggol-cc", "NAME": "Punggol CC", "ADDRESSFLO": " ", "ADDRESSUNI": " "}}, {"type": "Feature", "id": 109, "geometry": {"type": "Point", "coordinates": [103.896252888842, 1.37773444804848]}, "properties": {"FID": 109, "ADDRESSBLO": "458", "ADDRESSPOS": "530458", "ADDRESSSTR": "Hougang Avenue 10", "HYPERLINK": "https://www.onepa.sg/cc/punggol-park-cc", "NAME": "Punggol Park CC", "ADDRESSFLO": "1", "ADDRESSUNI": "405"}}, {"type": "Feature", "id": 110, "geometry": {"type": "Point", "coordinates": [103.907288603872, 1.40328428715179]}, "properties": {"FID": 110, "ADDRESSBLO": "602", "ADDRESSPOS": "820602", "ADDRESSSTR": "Punggol Central", "HYPERLINK": "https://www.onepa.sg/cc/punggol-vista-cc", "NAME": "Punggol Vista CC", "ADDRESSFLO": "1", "ADDRESSUNI": "2"}}, {"type": "Feature", "id": 111, "geometry": {"type": "Point", "coordinates": [103.89566485754, 1.40451590611078]}, "properties": {"FID": 111, "ADDRESSBLO": "259C", "ADDRESSPOS": "823259", "ADDRESSSTR": "Punggol Field", "HYPERLINK": " ", "NAME": "Punggol West CC", "ADDRESSFLO": "1", "ADDRESSUNI": "47"}}, {"type": "Feature", "id": 112, "geometry": {"type": "Point", "coordinates": [103.801305110356, 1.29915022254543]}, "properties": {"FID": 112, "ADDRESSBLO": "365", "ADDRESSPOS": "149732", "ADDRESSSTR": "Commonwealth Avenue", "HYPERLINK": "https://www.onepa.sg/cc/queenstown-cc", "NAME": "Queenstown CC", "ADDRESSFLO": " ", "ADDRESSUNI": " "}}, {"type": "Feature", "id": 113, "geometry": {"type": "Point", "coordinates": [103.819753123789, 1.27593101840189]}, "properties": {"FID": 113, "ADDRESSBLO": "51", "ADDRESSPOS": "98917", "ADDRESSSTR": "Telok Blangah Crescent", "HYPERLINK": "https://www.onepa.sg/cc/radin-mas-cc", "NAME": "Radin Mas CC", "ADDRESSFLO": " ", "ADDRESSUNI": " "}}, {"type": "Feature", "id": 114, "geometry": {"type": "Point", "coordinates": [103.901775033062, 1.39362832090044]}, "properties": {"FID": 114, "ADDRESSBLO": "193", "ADDRESSPOS": "540193", "ADDRESSSTR": "Rivervale Drive", "HYPERLINK": "https://www.onepa.sg/cc/rivervale-cc", "NAME": "Rivervale CC", "ADDRESSFLO": "1", "ADDRESSUNI": "787"}}, {"type": "Feature", "id": 115, "geometry": {"type": "Point", "coordinates": [103.828783240836, 1.45168152491392]}, "properties": {"FID": 115, "ADDRESSBLO": "2125", "ADDRESSPOS": "758528", "ADDRESSSTR": "Sembawang Road", "HYPERLINK": "https://www.onepa.sg/cc/sembawang-cc", "NAME": "Sembawang CC", "ADDRESSFLO": " ", "ADDRESSUNI": " "}}, {"type": "Feature", "id": 116, "geometry": {"type": "Point", "coordinates": [103.893906098282, 1.3927855940094]}, "properties": {"FID": 116, "ADDRESSBLO": "2", "ADDRESSPOS": "545025", "ADDRESSSTR": "Sengkang Square", "HYPERLINK": "https://www.onepa.sg/cc/sengkang-cc", "NAME": "Sengkang CC", "ADDRESSFLO": "1", "ADDRESSUNI": "1"}}, {"type": "Feature", "id": 117, "geometry": {"type": "Point", "coordinates": [103.764659585968, 1.38158679008904]}, "properties": {"FID": 117, "ADDRESSBLO": "101", "ADDRESSPOS": "679910", "ADDRESSSTR": "Bukit Panjang Road", "HYPERLINK": "https://www.onepa.sg/cc/senja-cashew-cc", "NAME": "Senja-Cashew CC", "ADDRESSFLO": " ", "ADDRESSUNI": " "}}]}