{"type": "FeatureCollection", "features": [{"type": "Feature", "id": 1, "geometry": {"type": "Point", "coordinates": [103.772008154708, 1.30167504371684]}, "properties": {"OBJECTID": 1, "TRADE_NAME": "UNIVERSITY CULTURAL CENTRE", "HOUSE_BLK_": "50", "ROAD_NAME": "KENT RIDGE CRESCENT", "LEVEL_NO": "", "UNIT_NO": "", "POSTAL_CD": "119279"}}, {"type": "Feature", "id": 2, "geometry": {"type": "Point", "coordinates": [103.854464808085, 1.27901700564831]}, "properties": {"OBJECTID": 2, "TRADE_NAME": "DBS AUDITORIUM", "HOUSE_BLK_": "12", "ROAD_NAME": "MARINA BOULEVARD", "LEVEL_NO": "", "UNIT_NO": "", "POSTAL_CD": "018982"}}, {"type": "Feature", "id": 3, "geometry": {"type": "Point", "coordinates": [103.842748045858, 1.28132734205334]}, "properties": {"OBJECTID": 3, "TRADE_NAME": "KRETA AYER PEOPLE'S THEATRE", "HOUSE_BLK_": "30A", "ROAD_NAME": "KRETA AYER ROAD", "LEVEL_NO": "", "UNIT_NO": "", "POSTAL_CD": "088997"}}, {"type": "Feature", "id": 4, "geometry": {"type": "Point", "coordinates": [103.849016027361, 1.2761779757727]}, "properties": {"OBJECTID": 4, "TRADE_NAME": "SINGAPORE CONFERENCE HALL", "HOUSE_BLK_": "7", "ROAD_NAME": "SHENTON WAY", "LEVEL_NO": "", "UNIT_NO": "", "POSTAL_CD": "068810"}}, {"type": "Feature", "id": 5, "geometry": {"type": "Point", "coordinates": [103.851652282811, 1.28833992682001]}, "properties": {"OBJECTID": 5, "TRADE_NAME": "VICTORIA THEATRE", "HOUSE_BLK_": "9", "ROAD_NAME": "EMPRESS PLACE", "LEVEL_NO": "", "UNIT_NO": "", "POSTAL_CD": "179556"}}, {"type": "Feature", "id": 6, "geometry": {"type": "Point", "coordinates": [103.848523930812, 1.29677631568828]}, "properties": {"OBJECTID": 6, "TRADE_NAME": "NATIONAL MUSEUM THEATRETTE", "HOUSE_BLK_": "93", "ROAD_NAME": "STAMFORD ROAD", "LEVEL_NO": "", "UNIT_NO": "", "POSTAL_CD": "178897"}}, {"type": "Feature", "id": 7, "geometry": {"type": "Point", "coordinates": [103.841713598586, 1.2913985918424]}, "properties": {"OBJECTID": 7, "TRADE_NAME": "SINGAPORE REPERTORY THEATRE", "HOUSE_BLK_": "20", "ROAD_NAME": "MERBAU ROAD", "LEVEL_NO": "", "UNIT_NO": "", "POSTAL_CD": "239035"}}, {"type": "Feature", "id": 8, "geometry": {"type": "Point", "coordinates": [103.84072633479, 1.30200263236341]}, "properties": {"OBJECTID": 8, "TRADE_NAME": "THE NEXUS AUDITORIUM", "HOUSE_BLK_": "5", "ROAD_NAME": "KOEK ROAD", "LEVEL_NO": "05", "UNIT_NO": "07", "POSTAL_CD": "228796"}}, {"type": "Feature", "id": 9, "geometry": {"type": "Point", "coordinates": [103.854418728492, 1.29739446799447]}, "properties": {"OBJECTID": 9, "TRADE_NAME": "DRAMA CENTRE", "HOUSE_BLK_": "100", "ROAD_NAME": "VICTORIA STREET", "LEVEL_NO": "03", "UNIT_NO": "01", "POSTAL_CD": "188064"}}, {"type": "Feature", "id": 10, "geometry": {"type": "Point", "coordinates": [103.855288020376, 1.28986232643239]}, "properties": {"OBJECTID": 10, "TRADE_NAME": "ESPLANADE - THEATRES ON THE BAY", "HOUSE_BLK_": "1", "ROAD_NAME": "ESPLANADE DRIVE", "LEVEL_NO": "", "UNIT_NO": "", "POSTAL_CD": "038981"}}, {"type": "Feature", "id": 11, "geometry": {"type": "Point", "coordinates": [103.857224287074, 1.29350730773103]}, "properties": {"OBJECTID": 11, "TRADE_NAME": "SINGAPORE INTERNATIONAL CONVENTION AND EXHIBITION CENTRE", "HOUSE_BLK_": "1", "ROAD_NAME": "RAFFLES BOULEVARD", "LEVEL_NO": "", "UNIT_NO": "", "POSTAL_CD": "039593"}}, {"type": "Feature", "id": 12, "geometry": {"type": "Point", "coordinates": [103.875685761193, 1.30191210205901]}, "properties": {"OBJECTID": 12, "TRADE_NAME": "KALLANG THEATRE", "HOUSE_BLK_": "1", "ROAD_NAME": "STADIUM WALK", "LEVEL_NO": "", "UNIT_NO": "", "POSTAL_CD": "397688"}}, {"type": "Feature", "id": 13, "geometry": {"type": "Point", "coordinates": [103.826091756685, 1.31294743487694]}, "properties": {"OBJECTID": 13, "TRADE_NAME": "RELC AUDITORIUM", "HOUSE_BLK_": "30", "ROAD_NAME": "ORANGE GROVE ROAD", "LEVEL_NO": "", "UNIT_NO": "", "POSTAL_CD": "258352"}}, {"type": "Feature", "id": 14, "geometry": {"type": "Point", "coordinates": [103.742036114135, 1.33114235810428]}, "properties": {"OBJECTID": 14, "TRADE_NAME": "JTC AUDITORIUM", "HOUSE_BLK_": "8", "ROAD_NAME": "JURONG TOWN HALL ROAD", "LEVEL_NO": "", "UNIT_NO": "", "POSTAL_CD": "609434"}}, {"type": "Feature", "id": 15, "geometry": {"type": "Point", "coordinates": [103.735469564909, 1.33452656470159]}, "properties": {"OBJECTID": 15, "TRADE_NAME": "OMNI-THEATRE", "HOUSE_BLK_": "21", "ROAD_NAME": "JURONG TOWN HALL ROAD", "LEVEL_NO": "", "UNIT_NO": "", "POSTAL_CD": "609433"}}, {"type": "Feature", "id": 16, "geometry": {"type": "Point", "coordinates": [103.68015221892, 1.34421841618434]}, "properties": {"OBJECTID": 16, "TRADE_NAME": "NANYANG AUDITORIUM", "HOUSE_BLK_": "50", "ROAD_NAME": "NANYANG AVENUE", "LEVEL_NO": "", "UNIT_NO": "", "POSTAL_CD": "639798"}}, {"type": "Feature", "id": 17, "geometry": {"type": "Point", "coordinates": [103.896275541051, 1.37989315538792]}, "properties": {"OBJECTID": 17, "TRADE_NAME": "BUDDHIST CULTURAL CENTRE", "HOUSE_BLK_": "105", "ROAD_NAME": "PUNGGOL ROAD", "LEVEL_NO": "", "UNIT_NO": "", "POSTAL_CD": "546636"}}, {"type": "Feature", "id": 18, "geometry": {"type": "Point", "coordinates": [103.851073460744, 1.29352406031093]}, "properties": {"OBJECTID": 18, "TRADE_NAME": "CAPITOL THEATRE", "HOUSE_BLK_": "17", "ROAD_NAME": "STAMFORD ROAD", "LEVEL_NO": "", "UNIT_NO": "", "POSTAL_CD": "178907"}}, {"type": "Feature", "id": 19, "geometry": {"type": "Point", "coordinates": [103.788214531337, 1.30684881944409]}, "properties": {"OBJECTID": 19, "TRADE_NAME": "THE STAR PERFORMING ART CENTRE", "HOUSE_BLK_": "1", "ROAD_NAME": "VISTA EXCHANGE GREEN", "LEVEL_NO": "04", "UNIT_NO": "01", "POSTAL_CD": "138617"}}, {"type": "Feature", "id": 20, "geometry": {"type": "Point", "coordinates": [103.77323060251, 1.30547903929389]}, "properties": {"OBJECTID": 20, "TRADE_NAME": "THE NGEE ANN KONGSI AUDITORIUM", "HOUSE_BLK_": "8", "ROAD_NAME": "COLLEGE AVENUE WEST", "LEVEL_NO": "02", "UNIT_NO": "", "POSTAL_CD": "138608"}}, {"type": "Feature", "id": 21, "geometry": {"type": "Point", "coordinates": [103.772885906174, 1.30433048565391]}, "properties": {"OBJECTID": 21, "TRADE_NAME": "UTOWN AUDITORIUM 2", "HOUSE_BLK_": "2", "ROAD_NAME": "COLLEGE AVENUE WEST", "LEVEL_NO": "01", "UNIT_NO": "", "POSTAL_CD": "138607"}}, {"type": "Feature", "id": 22, "geometry": {"type": "Point", "coordinates": [103.773492152323, 1.30399550833142]}, "properties": {"OBJECTID": 22, "TRADE_NAME": "UTOWN AUDITORIUM 1", "HOUSE_BLK_": "1", "ROAD_NAME": "CREATE WAY", "LEVEL_NO": "01", "UNIT_NO": "", "POSTAL_CD": "138602"}}, {"type": "Feature", "id": 23, "geometry": {"type": "Point", "coordinates": [103.773004706176, 1.30728559911592]}, "properties": {"OBJECTID": 23, "TRADE_NAME": "UTOWN AUDITORIUM 3", "HOUSE_BLK_": "10", "ROAD_NAME": "COLLEGE AVENUE EAST", "LEVEL_NO": "B1", "UNIT_NO": "01", "POSTAL_CD": "138616"}}, {"type": "Feature", "id": 24, "geometry": {"type": "Point", "coordinates": [103.81666603698, 1.28401120395323]}, "properties": {"OBJECTID": 24, "TRADE_NAME": "GATEWAY THEATRE", "HOUSE_BLK_": "3615", "ROAD_NAME": "JALAN BUKIT MERAH", "LEVEL_NO": "", "UNIT_NO": "", "POSTAL_CD": "159461"}}, {"type": "Feature", "id": 25, "geometry": {"type": "Point", "coordinates": [103.80086037668, 1.29675041373259]}, "properties": {"OBJECTID": 25, "TRADE_NAME": "MDIS AUDITORIUM", "HOUSE_BLK_": "503", "ROAD_NAME": "STIRLING ROAD", "LEVEL_NO": "2", "UNIT_NO": "", "POSTAL_CD": "148959"}}, {"type": "Feature", "id": 26, "geometry": {"type": "Point", "coordinates": [103.885111638657, 1.30405901723876]}, "properties": {"OBJECTID": 26, "TRADE_NAME": "GOODMAN ARTS CENTRE", "HOUSE_BLK_": "90", "ROAD_NAME": "GOODMAN ROAD", "LEVEL_NO": "", "UNIT_NO": "", "POSTAL_CD": "439053"}}, {"type": "Feature", "id": 27, "geometry": {"type": "Point", "coordinates": [103.851652282811, 1.28833992682001]}, "properties": {"OBJECTID": 27, "TRADE_NAME": "VICTORIA CONCERT HALL", "HOUSE_BLK_": "11", "ROAD_NAME": "EMPRESS PLACE", "LEVEL_NO": "", "UNIT_NO": "", "POSTAL_CD": "179558"}}]}