{"type": "FeatureCollection", "features": [{"type": "Feature", "id": 1, "geometry": {"type": "Point", "coordinates": [103.850556590223, 1.29870922042332]}, "properties": {"OBJECTID": 1, "TRADE_NAME": "NANYANG ACADEMY OF FINE ARTS CAMPUS 2", "HOUSE_BLK_": "38", "ROAD_NAME": "BENCOOLEN STREET", "LEVEL_NO": "", "UNIT_NO": "", "POSTAL_CD": "189654", "Type": "ART INSTITUTIONS"}}, {"type": "Feature", "id": 2, "geometry": {"type": "Point", "coordinates": [103.8514657881, 1.29987414707492]}, "properties": {"OBJECTID": 2, "TRADE_NAME": "NANYANG ACADEMY OF FINE ARTS CAMPUS 1", "HOUSE_BLK_": "80", "ROAD_NAME": "BENCOOLEN STREET", "LEVEL_NO": "", "UNIT_NO": "", "POSTAL_CD": "189655", "Type": "ART INSTITUTIONS"}}, {"type": "Feature", "id": 3, "geometry": {"type": "Point", "coordinates": [103.85196022649, 1.30129975872401]}, "properties": {"OBJECTID": 3, "TRADE_NAME": "NANYANG ACADEMY OF FINE ARTS CAMPUS 3", "HOUSE_BLK_": "151", "ROAD_NAME": "BENCOOLEN STREET", "LEVEL_NO": "", "UNIT_NO": "", "POSTAL_CD": "189656", "Type": "ART INSTITUTIONS"}}, {"type": "Feature", "id": 4, "geometry": {"type": "Point", "coordinates": [103.841115935405, 1.31053018665281]}, "properties": {"OBJECTID": 4, "TRADE_NAME": "LASALLE COLLEGE OF THE ARTS (WINSTEDT CAMPUS)", "HOUSE_BLK_": "9", "ROAD_NAME": "WINSTEDT ROAD", "LEVEL_NO": "", "UNIT_NO": "", "POSTAL_CD": "227976", "Type": "ART INSTITUTIONS"}}, {"type": "Feature", "id": 5, "geometry": {"type": "Point", "coordinates": [103.851541462036, 1.30266997296156]}, "properties": {"OBJECTID": 5, "TRADE_NAME": "LASALLE COLLEGE OF THE ARTS (MCNALLY CAMPUS)", "HOUSE_BLK_": "1", "ROAD_NAME": "MCNALLY STREET", "LEVEL_NO": "", "UNIT_NO": "", "POSTAL_CD": "187940", "Type": "ART INSTITUTIONS"}}, {"type": "Feature", "id": 6, "geometry": {"type": "Point", "coordinates": [103.851653495265, 1.3000310340052]}, "properties": {"OBJECTID": 6, "TRADE_NAME": "NANYANG ACADEMY OF FINE ARTS", "HOUSE_BLK_": "80", "ROAD_NAME": "BENCOOLEN STREET", "LEVEL_NO": "", "UNIT_NO": "", "POSTAL_CD": "189655", "Type": "ART INSTITUTIONS"}}, {"type": "Feature", "id": 7, "geometry": {"type": "Point", "coordinates": [103.777626913869, 1.29699467235143]}, "properties": {"OBJECTID": 7, "TRADE_NAME": "NATIONAL UNIVERSITY OF SINGAPORE", "HOUSE_BLK_": "21", "ROAD_NAME": "LOWER KENT RIDGE ROAD", "LEVEL_NO": "", "UNIT_NO": "", "POSTAL_CD": "119077", "Type": "AUTONOMOUS UNIVERSITY"}}, {"type": "Feature", "id": 8, "geometry": {"type": "Point", "coordinates": [103.852213189798, 1.29686204890221]}, "properties": {"OBJECTID": 8, "TRADE_NAME": "SINGAPORE MANAGEMENT UNIVERSITY (ADMIN BUILDING)", "HOUSE_BLK_": "81", "ROAD_NAME": "VICTORIA STREET", "LEVEL_NO": "", "UNIT_NO": "", "POSTAL_CD": "188065", "Type": "AUTONOMOUS UNIVERSITY"}}, {"type": "Feature", "id": 9, "geometry": {"type": "Point", "coordinates": [103.781232524383, 1.3091263414144]}, "properties": {"OBJECTID": 9, "TRADE_NAME": "SINGAPORE POLYTECHNIC", "HOUSE_BLK_": "500", "ROAD_NAME": "DOVER ROAD", "LEVEL_NO": "", "UNIT_NO": "", "POSTAL_CD": "139651", "Type": "POLYTECHNIC"}}, {"type": "Feature", "id": 10, "geometry": {"type": "Point", "coordinates": [103.680705586882, 1.34463493834712]}, "properties": {"OBJECTID": 10, "TRADE_NAME": "NANYANG TECHNOLOGICAL UNIVERSITY", "HOUSE_BLK_": "50", "ROAD_NAME": "NANYANG AVENUE", "LEVEL_NO": "", "UNIT_NO": "", "POSTAL_CD": "639798", "Type": "AUTONOMOUS UNIVERSITY"}}, {"type": "Feature", "id": 11, "geometry": {"type": "Point", "coordinates": [103.678863619131, 1.34922529567462]}, "properties": {"OBJECTID": 11, "TRADE_NAME": "NATIONAL INSTITUTE OF EDUCATION", "HOUSE_BLK_": "1", "ROAD_NAME": "NANYANG WALK", "LEVEL_NO": "", "UNIT_NO": "", "POSTAL_CD": "637616", "Type": "AUTONOMOUS UNIVERSITY"}}, {"type": "Feature", "id": 12, "geometry": {"type": "Point", "coordinates": [103.775490810374, 1.33373824725235]}, "properties": {"OBJECTID": 12, "TRADE_NAME": "NGEE ANN POLYTECHNIC", "HOUSE_BLK_": "535", "ROAD_NAME": "CLEMENTI ROAD", "LEVEL_NO": "", "UNIT_NO": "", "POSTAL_CD": "599489", "Type": "POLYTECHNIC"}}, {"type": "Feature", "id": 13, "geometry": {"type": "Point", "coordinates": [103.932736327437, 1.34516237295542]}, "properties": {"OBJECTID": 13, "TRADE_NAME": "TEMASEK POLYTECHNIC ", "HOUSE_BLK_": "21", "ROAD_NAME": "TAMPINES AVENUE 1", "LEVEL_NO": "", "UNIT_NO": "", "POSTAL_CD": "529757", "Type": "POLYTECHNIC"}}, {"type": "Feature", "id": 14, "geometry": {"type": "Point", "coordinates": [103.776279925836, 1.32950340986269]}, "properties": {"OBJECTID": 14, "TRADE_NAME": "SINGAPORE UNIVERSITY OF SOCIAL SCIENCES", "HOUSE_BLK_": "461", "ROAD_NAME": "CLEMENTI ROAD", "LEVEL_NO": "", "UNIT_NO": "", "POSTAL_CD": "599491", "Type": "AUTONOMOUS UNIVERSITY"}}, {"type": "Feature", "id": 15, "geometry": {"type": "Point", "coordinates": [103.799954685787, 1.3259306949943]}, "properties": {"OBJECTID": 15, "TRADE_NAME": "SIM MANAGEMENT HOUSE", "HOUSE_BLK_": "41", "ROAD_NAME": "NAMLY AVENUE", "LEVEL_NO": "", "UNIT_NO": "", "POSTAL_CD": "267616", "Type": "AUTONOMOUS UNIVERSITY"}}, {"type": "Feature", "id": 16, "geometry": {"type": "Point", "coordinates": [103.84897096206, 1.37844281600229]}, "properties": {"OBJECTID": 16, "TRADE_NAME": "NANYANG POLYTECHNIC ", "HOUSE_BLK_": "180", "ROAD_NAME": "ANG MO KIO AVENUE 8", "LEVEL_NO": "", "UNIT_NO": "", "POSTAL_CD": "569830", "Type": "POLYTECHNIC"}}, {"type": "Feature", "id": 17, "geometry": {"type": "Point", "coordinates": [103.784284752817, 1.44389133561946]}, "properties": {"OBJECTID": 17, "TRADE_NAME": "REPUBLIC POLYTECHNIC ", "HOUSE_BLK_": "9", "ROAD_NAME": "WOODLANDS AVENUE 9", "LEVEL_NO": "", "UNIT_NO": "", "POSTAL_CD": "738964", "Type": "POLYTECHNIC"}}, {"type": "Feature", "id": 20, "geometry": {"type": "Point", "coordinates": [103.779561969687, 1.30965879383522]}, "properties": {"OBJECTID": 20, "TRADE_NAME": "SINGAPORE POLYTECHNIC", "HOUSE_BLK_": "500", "ROAD_NAME": "DOVER ROAD", "LEVEL_NO": "", "UNIT_NO": "", "POSTAL_CD": "139651", "Type": "POLYTECHNIC"}}, {"type": "Feature", "id": 21, "geometry": {"type": "Point", "coordinates": [103.816700194824, 1.31846351220027]}, "properties": {"OBJECTID": 21, "TRADE_NAME": "NATIONAL UNIVERSITY OF SINGAPORE (BUKIT TIMAH CAMPUS)", "HOUSE_BLK_": "469G", "ROAD_NAME": "BUKIT TIMAH ROAD", "LEVEL_NO": "", "UNIT_NO": "", "POSTAL_CD": "259776", "Type": "AUTONOMOUS UNIVERSITY"}}, {"type": "Feature", "id": 23, "geometry": {"type": "Point", "coordinates": [103.781617177982, 1.2958771276931]}, "properties": {"OBJECTID": 23, "TRADE_NAME": "YONG LOO LIN SCHOOL OF MEDICINE, NATIONAL UNIVERSITY OF SINGAPORE", "HOUSE_BLK_": "10", "ROAD_NAME": "MEDICAL DRIVE", "LEVEL_NO": "", "UNIT_NO": "", "POSTAL_CD": "117597", "Type": "AUTONOMOUS UNIVERSITY"}}, {"type": "Feature", "id": 24, "geometry": {"type": "Point", "coordinates": [103.772825146986, 1.30216358488324]}, "properties": {"OBJECTID": 24, "TRADE_NAME": "YONG SIEW TOH CONSERVATORY OF MUSIC", "HOUSE_BLK_": "3", "ROAD_NAME": "CONSERVATORY DRIVE", "LEVEL_NO": "", "UNIT_NO": "", "POSTAL_CD": "117376", "Type": "AUTONOMOUS UNIVERSITY"}}, {"type": "Feature", "id": 25, "geometry": {"type": "Point", "coordinates": [103.817996507906, 1.31939074392929]}, "properties": {"OBJECTID": 25, "TRADE_NAME": "LEE KUAN YEW SCHOOL OF PUBLIC POLICY", "HOUSE_BLK_": "469C", "ROAD_NAME": "BUKIT TIMAH ROAD", "LEVEL_NO": "", "UNIT_NO": "", "POSTAL_CD": "259772", "Type": "AUTONOMOUS UNIVERSITY"}}, {"type": "Feature", "id": 30, "geometry": {"type": "Point", "coordinates": [103.773618206094, 1.3064564945293]}, "properties": {"OBJECTID": 30, "TRADE_NAME": "UNIVERSITY TOWN", "HOUSE_BLK_": "24", "ROAD_NAME": "COLLEGE AVENUE EAST", "LEVEL_NO": "", "UNIT_NO": "", "POSTAL_CD": "138596", "Type": "AUTONOMOUS UNIVERSITY"}}, {"type": "Feature", "id": 31, "geometry": {"type": "Point", "coordinates": [103.962995900606, 1.34067686027861]}, "properties": {"OBJECTID": 31, "TRADE_NAME": "SINGAPORE UNIVERSITY OF TECHNOLOGY AND DESIGN (SUTD)", "HOUSE_BLK_": "8", "ROAD_NAME": "SOMAPAH ROAD", "LEVEL_NO": "", "UNIT_NO": "", "POSTAL_CD": "487372", "Type": "AUTONOMOUS UNIVERSITY"}}, {"type": "Feature", "id": 32, "geometry": {"type": "Point", "coordinates": [103.816800913194, 1.31891344151349]}, "properties": {"OBJECTID": 32, "TRADE_NAME": "NATIONAL UNIVERSITY OF SINGAPORE (BUKIT TIMAH CAMPUS)", "HOUSE_BLK_": "469", "ROAD_NAME": "BUKIT TIMAH ROAD", "LEVEL_NO": "", "UNIT_NO": "", "POSTAL_CD": "259756", "Type": "AUTONOMOUS UNIVERSITY"}}, {"type": "Feature", "id": 33, "geometry": {"type": "Point", "coordinates": [103.817272073183, 1.31934854529321]}, "properties": {"OBJECTID": 33, "TRADE_NAME": "NATIONAL UNIVERSITY OF SINGAPORE (BUKIT TIMAH CAMPUS)", "HOUSE_BLK_": "469A", "ROAD_NAME": "BUKIT TIMAH ROAD", "LEVEL_NO": "", "UNIT_NO": "", "POSTAL_CD": "259770", "Type": "AUTONOMOUS UNIVERSITY"}}, {"type": "Feature", "id": 34, "geometry": {"type": "Point", "coordinates": [103.817495509015, 1.31961253981283]}, "properties": {"OBJECTID": 34, "TRADE_NAME": "NATIONAL UNIVERSITY OF SINGAPORE (BUKIT TIMAH CAMPUS)", "HOUSE_BLK_": "469B", "ROAD_NAME": "BUKIT TIMAH ROAD", "LEVEL_NO": "", "UNIT_NO": "", "POSTAL_CD": "259771", "Type": "AUTONOMOUS UNIVERSITY"}}, {"type": "Feature", "id": 35, "geometry": {"type": "Point", "coordinates": [103.817893813419, 1.31937299332553]}, "properties": {"OBJECTID": 35, "TRADE_NAME": "NATIONAL UNIVERSITY OF SINGAPORE (BUKIT TIMAH CAMPUS)", "HOUSE_BLK_": "469C", "ROAD_NAME": "BUKIT TIMAH ROAD", "LEVEL_NO": "", "UNIT_NO": "", "POSTAL_CD": "259772", "Type": "AUTONOMOUS UNIVERSITY"}}, {"type": "Feature", "id": 36, "geometry": {"type": "Point", "coordinates": [103.817621804389, 1.3189916671702]}, "properties": {"OBJECTID": 36, "TRADE_NAME": "NATIONAL UNIVERSITY OF SINGAPORE (BUKIT TIMAH CAMPUS)", "HOUSE_BLK_": "469E", "ROAD_NAME": "BUKIT TIMAH ROAD", "LEVEL_NO": "", "UNIT_NO": "", "POSTAL_CD": "259774", "Type": "AUTONOMOUS UNIVERSITY"}}, {"type": "Feature", "id": 37, "geometry": {"type": "Point", "coordinates": [103.818088111249, 1.31872278801315]}, "properties": {"OBJECTID": 37, "TRADE_NAME": "NATIONAL UNIVERSITY OF SINGAPORE (BUKIT TIMAH CAMPUS)", "HOUSE_BLK_": "469D", "ROAD_NAME": "BUKIT TIMAH ROAD", "LEVEL_NO": "", "UNIT_NO": "", "POSTAL_CD": "259773", "Type": "AUTONOMOUS UNIVERSITY"}}, {"type": "Feature", "id": 38, "geometry": {"type": "Point", "coordinates": [103.817494594649, 1.3184187522684]}, "properties": {"OBJECTID": 38, "TRADE_NAME": "NATIONAL UNIVERSITY OF SINGAPORE (BUKIT TIMAH CAMPUS)", "HOUSE_BLK_": "469F", "ROAD_NAME": "BUKIT TIMAH ROAD", "LEVEL_NO": "", "UNIT_NO": "", "POSTAL_CD": "259775", "Type": "AUTONOMOUS UNIVERSITY"}}, {"type": "Feature", "id": 39, "geometry": {"type": "Point", "coordinates": [103.777771094104, 1.30787008922699]}, "properties": {"OBJECTID": 39, "TRADE_NAME": "SINGAPORE INSTITUTE OF TECHNOLOGY@SP", "HOUSE_BLK_": "510", "ROAD_NAME": "DOVER ROAD", "LEVEL_NO": "", "UNIT_NO": "", "POSTAL_CD": "139660", "Type": "AUTONOMOUS UNIVERSITY"}}, {"type": "Feature", "id": 40, "geometry": {"type": "Point", "coordinates": [103.932432475017, 1.34340418773041]}, "properties": {"OBJECTID": 40, "TRADE_NAME": "SINGAPORE INSTITUTE OF TECHNOLOGY@TP", "HOUSE_BLK_": "29B", "ROAD_NAME": "TAMPINES AVENUE 1", "LEVEL_NO": "", "UNIT_NO": "", "POSTAL_CD": "528694", "Type": "AUTONOMOUS UNIVERSITY"}}, {"type": "Feature", "id": 41, "geometry": {"type": "Point", "coordinates": [103.77178987283, 1.30630452055884]}, "properties": {"OBJECTID": 41, "TRADE_NAME": "YALE-NUS COLLEGE", "HOUSE_BLK_": "16", "ROAD_NAME": "COLLEGE AVENUE WEST", "LEVEL_NO": "01", "UNIT_NO": "220", "POSTAL_CD": "138527", "Type": "AUTONOMOUS UNIVERSITY"}}, {"type": "Feature", "id": 42, "geometry": {"type": "Point", "coordinates": [103.783617708818, 1.44414211999336]}, "properties": {"OBJECTID": 42, "TRADE_NAME": "SINGAPORE INSTITUTE OF TECHNOLOGY@RP", "HOUSE_BLK_": "43", "ROAD_NAME": "WOODLANDS AVENUE 9", "LEVEL_NO": "", "UNIT_NO": "", "POSTAL_CD": "737729", "Type": "AUTONOMOUS UNIVERSITY"}}, {"type": "Feature", "id": 43, "geometry": {"type": "Point", "coordinates": [103.848692816272, 1.37753340185294]}, "properties": {"OBJECTID": 43, "TRADE_NAME": "SINGAPORE INSTITUTE OF TECHNOLOGY@NYP", "HOUSE_BLK_": "172A", "ROAD_NAME": "ANG MO KIO AVENUE 8", "LEVEL_NO": "", "UNIT_NO": "", "POSTAL_CD": "567739", "Type": "AUTONOMOUS UNIVERSITY"}}, {"type": "Feature", "id": 44, "geometry": {"type": "Point", "coordinates": [103.774389763614, 1.33413260690266]}, "properties": {"OBJECTID": 44, "TRADE_NAME": "SINGAPORE INSTITUTE OF TECHNOLOGY@NP", "HOUSE_BLK_": "537", "ROAD_NAME": "CLEMENTI ROAD", "LEVEL_NO": "", "UNIT_NO": "", "POSTAL_CD": "599493", "Type": "AUTONOMOUS UNIVERSITY"}}, {"type": "Feature", "id": 46, "geometry": {"type": "Point", "coordinates": [103.954985027757, 1.33455404637081]}, "properties": {"OBJECTID": 46, "TRADE_NAME": "ITE COLLEGE EAST", "HOUSE_BLK_": "10", "ROAD_NAME": "SIMEI AVENUE", "LEVEL_NO": "", "UNIT_NO": "", "POSTAL_CD": "486047", "Type": "INSTITUTE OF TECHNICAL EDUCATION"}}, {"type": "Feature", "id": 47, "geometry": {"type": "Point", "coordinates": [103.75211270611, 1.3750249466212]}, "properties": {"OBJECTID": 47, "TRADE_NAME": "ITE COLLEGE WEST", "HOUSE_BLK_": "1", "ROAD_NAME": "CHOA CHU KANG GROVE", "LEVEL_NO": "", "UNIT_NO": "", "POSTAL_CD": "688236", "Type": "INSTITUTE OF TECHNICAL EDUCATION"}}, {"type": "Feature", "id": 48, "geometry": {"type": "Point", "coordinates": [103.856472691026, 1.37820943401757]}, "properties": {"OBJECTID": 48, "TRADE_NAME": "ITE COLLEGE CENTRAL", "HOUSE_BLK_": "2", "ROAD_NAME": "ANG MO KIO DRIVE", "LEVEL_NO": "", "UNIT_NO": "", "POSTAL_CD": "567720", "Type": "INSTITUTE OF TECHNICAL EDUCATION"}}, {"type": "Feature", "id": 49, "geometry": {"type": "Point", "coordinates": [103.856413493461, 1.37750946126338]}, "properties": {"OBJECTID": 49, "TRADE_NAME": "ITE HEADQUARTERS", "HOUSE_BLK_": "2", "ROAD_NAME": "ANG MO KIO DRIVE", "LEVEL_NO": "", "UNIT_NO": "", "POSTAL_CD": "567720", "Type": "INSTITUTE OF TECHNICAL EDUCATION"}}]}