{"type": "FeatureCollection", "features": [{"type": "Feature", "id": 1, "geometry": {"type": "Point", "coordinates": [103.844588553646, 1.286473575115]}, "properties": {"FID": 1, "POSTALCODE": "59804", "TOTALROOMS": "445", "ADDRESS": "60 Eu Tong Sen Street", "NAME": "Furama City Centre Singapore"}}, {"type": "Feature", "id": 2, "geometry": {"type": "Point", "coordinates": [103.836092839766, 1.28763454356563]}, "properties": {"FID": 2, "POSTALCODE": "169633", "TOTALROOMS": "615", "ADDRESS": "405 Havelock Road", "NAME": "Furama Riverfront Singapore"}}, {"type": "Feature", "id": 3, "geometry": {"type": "Point", "coordinates": [103.718428418365, 1.41928441014153]}, "properties": {"FID": 3, "POSTALCODE": "718813", "TOTALROOMS": "35", "ADDRESS": "10 Neo Tiew Lane 2", "NAME": "GALLOP KRANJI FARM RESORT"}}, {"type": "Feature", "id": 4, "geometry": {"type": "Point", "coordinates": [103.85942785755, 1.3156400612413]}, "properties": {"FID": 4, "POSTALCODE": "338821", "TOTALROOMS": "7", "ADDRESS": "322 Lavender Street", "NAME": "Gap Year Hostel"}}, {"type": "Feature", "id": 5, "geometry": {"type": "Point", "coordinates": [103.87374140144, 1.31119515661632]}, "properties": {"FID": 5, "POSTALCODE": "389218", "TOTALROOMS": "27", "ADDRESS": "115 Geylang Road", "NAME": "Gay World Hotel"}}, {"type": "Feature", "id": 6, "geometry": {"type": "Point", "coordinates": [103.739259628973, 1.33156163983687]}, "properties": {"FID": 6, "POSTALCODE": "608516", "TOTALROOMS": "557", "ADDRESS": "2 Town Hall Link", "NAME": "Genting Hotel Jurong"}}, {"type": "Feature", "id": 7, "geometry": {"type": "Point", "coordinates": [103.881036633716, 1.3112255994656]}, "properties": {"FID": 7, "POSTALCODE": "397662", "TOTALROOMS": "33", "ADDRESS": "61 Westerhout Road", "NAME": "Golden Dragon Hotel"}}, {"type": "Feature", "id": 8, "geometry": {"type": "Point", "coordinates": [103.830811463646, 1.27784877360875]}, "properties": {"FID": 8, "POSTALCODE": "160146", "TOTALROOMS": "7", "ADDRESS": "146 JALAN BUKIT MERAH, # 01-1088", "NAME": "GOLDEN HOSTEL"}}, {"type": "Feature", "id": 9, "geometry": {"type": "Point", "coordinates": [103.85525093483, 1.30914207710231]}, "properties": {"FID": 9, "POSTALCODE": "209645", "TOTALROOMS": "54", "ADDRESS": "51 Desker Road", "NAME": "Golden Royal Hotel"}}, {"type": "Feature", "id": 10, "geometry": {"type": "Point", "coordinates": [103.877336350951, 1.31076955416824]}, "properties": {"FID": 10, "POSTALCODE": "399095", "TOTALROOMS": "43", "ADDRESS": "31 Lorong 8 Geylang", "NAME": "Golden Star Hotel"}}, {"type": "Feature", "id": 11, "geometry": {"type": "Point", "coordinates": [103.834109071326, 1.30822214865832]}, "properties": {"FID": 11, "POSTALCODE": "228221", "TOTALROOMS": "233", "ADDRESS": "22 Scotts Road", "NAME": "Goodwood Park Hotel"}}, {"type": "Feature", "id": 12, "geometry": {"type": "Point", "coordinates": [103.835147958743, 1.29028194328471]}, "properties": {"FID": 12, "POSTALCODE": "169663", "TOTALROOMS": "574", "ADDRESS": "392 Havelock Road", "NAME": "Grand Copthorne Waterfront Hotel Singapore"}}, {"type": "Feature", "id": 13, "geometry": {"type": "Point", "coordinates": [103.833283334569, 1.30634534050829]}, "properties": {"FID": 13, "POSTALCODE": "228211", "TOTALROOMS": "677", "ADDRESS": "10 Scotts Road", "NAME": "Grand Hyatt Singapore"}}, {"type": "Feature", "id": 14, "geometry": {"type": "Point", "coordinates": [103.904051124445, 1.30432600560609]}, "properties": {"FID": 14, "POSTALCODE": "428769", "TOTALROOMS": "576", "ADDRESS": "50 East Coast Road", "NAME": "Grand Mercure Roxy Hotel"}}, {"type": "Feature", "id": 15, "geometry": {"type": "Point", "coordinates": [103.850123927065, 1.29262895455501]}, "properties": {"FID": 15, "POSTALCODE": "179809", "TOTALROOMS": "343", "ADDRESS": "10 Coleman Street", "NAME": "Grand Park City Hall"}}, {"type": "Feature", "id": 16, "geometry": {"type": "Point", "coordinates": [103.83620201368, 1.30310526487753]}, "properties": {"FID": 16, "POSTALCODE": "238857", "TOTALROOMS": "308", "ADDRESS": "270 Orchard Road", "NAME": "Grand Park Orchard"}}, {"type": "Feature", "id": 17, "geometry": {"type": "Point", "coordinates": [103.857555439988, 1.3159109419624]}, "properties": {"FID": 17, "POSTALCODE": "218673", "TOTALROOMS": "17", "ADDRESS": "427 RACE COURSE ROAD", "NAME": "greendili backpackers hostel"}}, {"type": "Feature", "id": 18, "geometry": {"type": "Point", "coordinates": [103.862220287796, 1.3097285950304]}, "properties": {"FID": 18, "POSTALCODE": "208188", "TOTALROOMS": "9", "ADDRESS": "30A Penhas Road", "NAME": "Gusti Bed and Breakfast"}}, {"type": "Feature", "id": 19, "geometry": {"type": "Point", "coordinates": [103.854580694898, 1.30462081021273]}, "properties": {"FID": 19, "POSTALCODE": "208801", "TOTALROOMS": "56", "ADDRESS": "33A Jalan Besar", "NAME": "Haising Hotel"}}, {"type": "Feature", "id": 20, "geometry": {"type": "Point", "coordinates": [103.847846575106, 1.30336628561247]}, "properties": {"FID": 20, "POSTALCODE": "228119", "TOTALROOMS": "64", "ADDRESS": "10A Upper Wilkie Road", "NAME": "Hangout @ Mt. Emily"}}, {"type": "Feature", "id": 21, "geometry": {"type": "Point", "coordinates": [103.827744710703, 1.27261403385736]}, "properties": {"FID": 21, "POSTALCODE": "99448", "TOTALROOMS": "100", "ADDRESS": "512 Kampong Bahru Road", "NAME": "Harbour Ville Hotel"}}, {"type": "Feature", "id": 22, "geometry": {"type": "Point", "coordinates": [103.861521232953, 1.31154152490651]}, "properties": {"FID": 22, "POSTALCODE": "209210", "TOTALROOMS": "43", "ADDRESS": "40 HAMILTON ROAD", "NAME": "Harbour Ville Hotel Hamilton"}}, {"type": "Feature", "id": 23, "geometry": {"type": "Point", "coordinates": [103.818913898366, 1.25746582920312]}, "properties": {"FID": 23, "POSTALCODE": "98139", "TOTALROOMS": "364", "ADDRESS": "28 Sentosa Gateway", "NAME": "Hard Rock Hotel"}}, {"type": "Feature", "id": 24, "geometry": {"type": "Point", "coordinates": [103.852244140097, 1.30156914062856]}, "properties": {"FID": 24, "POSTALCODE": "189641", "TOTALROOMS": "83", "ADDRESS": "169A Bencoolen Street", "NAME": "Hawaii Hostel"}}, {"type": "Feature", "id": 25, "geometry": {"type": "Point", "coordinates": [103.851928683499, 1.30833561700095]}, "properties": {"FID": 25, "POSTALCODE": "219924", "TOTALROOMS": "328", "ADDRESS": "3 Belilios Road", "NAME": "Hilton Garden Inn Singapore Serangoon"}}, {"type": "Feature", "id": 26, "geometry": {"type": "Point", "coordinates": [103.829314891446, 1.30587903324145]}, "properties": {"FID": 26, "POSTALCODE": "238883", "TOTALROOMS": "421", "ADDRESS": "581 Orchard Road", "NAME": "Hilton Singapore"}}, {"type": "Feature", "id": 27, "geometry": {"type": "Point", "coordinates": [103.841983925747, 1.28924403208445]}, "properties": {"FID": 27, "POSTALCODE": "59573", "TOTALROOMS": "442", "ADDRESS": "2 Magazine Road", "NAME": "Holiday Inn Express Singapore Clarke Quay"}}, {"type": "Feature", "id": 28, "geometry": {"type": "Point", "coordinates": [103.904574227746, 1.30485337789991]}, "properties": {"FID": 28, "POSTALCODE": "423371", "TOTALROOMS": "451", "ADDRESS": "88 EAST COAST ROAD, # 07-05 KATONG SQUARE", "NAME": "Holiday Inn Express Singapore Katong"}}, {"type": "Feature", "id": 29, "geometry": {"type": "Point", "coordinates": [103.836680365647, 1.30322797211424]}, "properties": {"FID": 29, "POSTALCODE": "229921", "TOTALROOMS": "221", "ADDRESS": "20 Bideford Road", "NAME": "Holiday Inn Express Singapore Orchard Road"}}, {"type": "Feature", "id": 30, "geometry": {"type": "Point", "coordinates": [103.858630349507, 1.31014110213335]}, "properties": {"FID": 30, "POSTALCODE": "209019", "TOTALROOMS": "119", "ADDRESS": "270 JALAN BESAR", "NAME": "Holiday Inn Express Singapore Serangoon"}}, {"type": "Feature", "id": 31, "geometry": {"type": "Point", "coordinates": [103.834068286993, 1.28907019618331]}, "properties": {"FID": 31, "POSTALCODE": "169075", "TOTALROOMS": "518", "ADDRESS": "317 Outram Road", "NAME": "Holiday Inn Singapore Atrium"}}, {"type": "Feature", "id": 32, "geometry": {"type": "Point", "coordinates": [103.841101592588, 1.30227912719367]}, "properties": {"FID": 32, "POSTALCODE": "229616", "TOTALROOMS": "324", "ADDRESS": "11 Cavenagh Road", "NAME": "Holiday Inn Singapore Orchard City Centre"}}, {"type": "Feature", "id": 33, "geometry": {"type": "Point", "coordinates": [103.851544401021, 1.2820845579333]}, "properties": {"FID": 33, "POSTALCODE": "49247", "TOTALROOMS": "146", "ADDRESS": "2 Finlayson Green", "NAME": "Ascott Singapore Raffles Place"}}, {"type": "Feature", "id": 34, "geometry": {"type": "Point", "coordinates": [103.854725511447, 1.30850306844118]}, "properties": {"FID": 34, "POSTALCODE": "207995", "TOTALROOMS": "14", "ADDRESS": "44 Rowell Road", "NAME": "Asia Star Hotel"}}, {"type": "Feature", "id": 35, "geometry": {"type": "Point", "coordinates": [103.857271551633, 1.31503289350138]}, "properties": {"FID": 35, "POSTALCODE": "218702", "TOTALROOMS": "55", "ADDRESS": "380 Race Course Road (Level 2)", "NAME": "Asphodel Inn"}}, {"type": "Feature", "id": 36, "geometry": {"type": "Point", "coordinates": [103.856934789476, 1.29800183779604]}, "properties": {"FID": 36, "POSTALCODE": "188091", "TOTALROOMS": "6", "ADDRESS": "2 TAN QUEE LAN STREET, # 02-00", "NAME": "Atlantis Pods @ Bugis"}}, {"type": "Feature", "id": 37, "geometry": {"type": "Point", "coordinates": [103.855776385903, 1.29837020069111]}, "properties": {"FID": 37, "POSTALCODE": "188736", "TOTALROOMS": "15", "ADDRESS": "490 North Bridge Road (Level 2)", "NAME": "Backpacker Cozy Corner Guesthouse"}}, {"type": "Feature", "id": 38, "geometry": {"type": "Point", "coordinates": [103.847825741764, 1.32633188394765]}, "properties": {"FID": 38, "POSTALCODE": "329842", "TOTALROOMS": "42", "ADDRESS": "471 Balestier Road", "NAME": "Balestier Hotel"}}, {"type": "Feature", "id": 39, "geometry": {"type": "Point", "coordinates": [103.823792225528, 1.26633681382572]}, "properties": {"FID": 39, "POSTALCODE": "98828", "TOTALROOMS": "333", "ADDRESS": "50 Telok Blangah Road", "NAME": "Bay Hotel Singapore"}}, {"type": "Feature", "id": 40, "geometry": {"type": "Point", "coordinates": [103.856714810655, 1.29752156158132]}, "properties": {"FID": 40, "POSTALCODE": "189699", "TOTALROOMS": "33", "ADDRESS": "95 Beach Road", "NAME": "Beach Hotel"}}, {"type": "Feature", "id": 41, "geometry": {"type": "Point", "coordinates": [103.81654784859, 1.25923773562202]}, "properties": {"FID": 41, "POSTALCODE": "98135", "TOTALROOMS": "35", "ADDRESS": "20 Sentosa Gateway", "NAME": "Beach Villas"}}, {"type": "Feature", "id": 42, "geometry": {"type": "Point", "coordinates": [103.845380903766, 1.28384556307392]}, "properties": {"FID": 42, "POSTALCODE": "58332", "TOTALROOMS": "11", "ADDRESS": "18 Upper Cross Street", "NAME": "Beary Best! Hostel"}}, {"type": "Feature", "id": 43, "geometry": {"type": "Point", "coordinates": [103.845477806494, 1.28379359870992]}, "properties": {"FID": 43, "POSTALCODE": "58330", "TOTALROOMS": "4", "ADDRESS": "14 UPPER CROSS STREET, # 1- BACKPACKER'S INN CHINATOWN 3", "NAME": "Beary Nice Hostel"}}, {"type": "Feature", "id": 44, "geometry": {"type": "Point", "coordinates": [103.843595192203, 1.28330905372047]}, "properties": {"FID": 44, "POSTALCODE": "58597", "TOTALROOMS": "8", "ADDRESS": "52 Temple Street", "NAME": "Beds and Dreams Inn @ Chinatown 1"}}, {"type": "Feature", "id": 45, "geometry": {"type": "Point", "coordinates": [103.843595192203, 1.28330905372047]}, "properties": {"FID": 45, "POSTALCODE": "58597", "TOTALROOMS": "5", "ADDRESS": "52A TEMPLE STREET", "NAME": "BEDS AND DREAMS INN @ CHINATOWN 2"}}, {"type": "Feature", "id": 46, "geometry": {"type": "Point", "coordinates": [103.847321110774, 1.28732213249608]}, "properties": {"FID": 46, "POSTALCODE": "59677", "TOTALROOMS": "11", "ADDRESS": "38A Hongkong Street", "NAME": "BEDS AND DREAMS INN @ CLARKE QUAY"}}, {"type": "Feature", "id": 47, "geometry": {"type": "Point", "coordinates": [103.900168102357, 1.31220269343826]}, "properties": {"FID": 47, "POSTALCODE": "427471", "TOTALROOMS": "6", "ADDRESS": "200 Joo Chiat Road", "NAME": "Betel Box Backpackers Hostel"}}, {"type": "Feature", "id": 48, "geometry": {"type": "Point", "coordinates": [103.860152246079, 1.3118099681251]}, "properties": {"FID": 48, "POSTALCODE": "207564", "TOTALROOMS": "4", "ADDRESS": "151 Tyrwhitt Road", "NAME": "Blanc Inn"}}, {"type": "Feature", "id": 49, "geometry": {"type": "Point", "coordinates": [103.844304191202, 1.28445775335203]}, "properties": {"FID": 49, "POSTALCODE": "58353", "TOTALROOMS": "42", "ADDRESS": "62 Upper Cross Street", "NAME": "Bliss Hotel Singapore"}}, {"type": "Feature", "id": 50, "geometry": {"type": "Point", "coordinates": [103.857905530471, 1.30982598262657]}, "properties": {"FID": 50, "POSTALCODE": "208916", "TOTALROOMS": "5", "ADDRESS": "243 JALAN BESAR", "NAME": "Blue Jazz Hostel"}}, {"type": "Feature", "id": 51, "geometry": {"type": "Point", "coordinates": [103.878864833503, 1.31351582640917]}, "properties": {"FID": 51, "POSTALCODE": "388575", "TOTALROOMS": "86", "ADDRESS": "20 Lorong 17 Geylang", "NAME": "Bright Star Hotel"}}, {"type": "Feature", "id": 52, "geometry": {"type": "Point", "coordinates": [103.853224504967, 1.30917905277478]}, "properties": {"FID": 52, "POSTALCODE": "218067", "TOTALROOMS": "65", "ADDRESS": "195 Serangoon Road", "NAME": "Broadway Hotel"}}, {"type": "Feature", "id": 53, "geometry": {"type": "Point", "coordinates": [103.880423590452, 1.31221722049545]}, "properties": {"FID": 53, "POSTALCODE": "398793", "TOTALROOMS": "49", "ADDRESS": "10 LORONG 18 GEYLANG BUDGETONE HOTEL", "NAME": "BudgetOne Hotel"}}, {"type": "Feature", "id": 54, "geometry": {"type": "Point", "coordinates": [103.854840569884, 1.30536578112783]}, "properties": {"FID": 54, "POSTALCODE": "207372", "TOTALROOMS": "29", "ADDRESS": "15 Upper Weld Road", "NAME": "Bunc Hostel"}}, {"type": "Feature", "id": 55, "geometry": {"type": "Point", "coordinates": [103.841824553603, 1.28063114980491]}, "properties": {"FID": 55, "POSTALCODE": "88392", "TOTALROOMS": "55", "ADDRESS": "22 TECK LIM ROAD PARK 22 HOTEL CHINATOWN", "NAME": "BUTTERNUTTREE HOTEL"}}, {"type": "Feature", "id": 56, "geometry": {"type": "Point", "coordinates": [103.954974046281, 1.33674234279048]}, "properties": {"FID": 56, "POSTALCODE": "486917", "TOTALROOMS": "19", "ADDRESS": "393F Upper Changi Road", "NAME": "Cameron Hotel"}}, {"type": "Feature", "id": 57, "geometry": {"type": "Point", "coordinates": [103.85264159736, 1.30499476356634]}, "properties": {"FID": 57, "POSTALCODE": "209922", "TOTALROOMS": "10", "ADDRESS": "50 CAMPBELL LANE CHECKERS BACKPACKERS", "NAME": "Campbell Inn"}}, {"type": "Feature", "id": 58, "geometry": {"type": "Point", "coordinates": [103.824378232693, 1.24948297407091]}, "properties": {"FID": 58, "POSTALCODE": "98297", "TOTALROOMS": "193", "ADDRESS": "1 The Knolls", "NAME": "Capella Hotel, Singapore"}}, {"type": "Feature", "id": 59, "geometry": {"type": "Point", "coordinates": [103.963583772578, 1.33426556482897]}, "properties": {"FID": 59, "POSTALCODE": "486037", "TOTALROOMS": "313", "ADDRESS": "3 Changi Business Park Central 1  Changi City", "NAME": "Capri By Fraser Changi City, Singapore"}}, {"type": "Feature", "id": 60, "geometry": {"type": "Point", "coordinates": [103.844865974727, 1.28415368529747]}, "properties": {"FID": 60, "POSTALCODE": "58341", "TOTALROOMS": "15", "ADDRESS": "38 UPPER CROSS STREET, # 02-01", "NAME": "CAPSULE POD BOUTIQUE HOSTEL"}}, {"type": "Feature", "id": 61, "geometry": {"type": "Point", "coordinates": [103.843698500989, 1.27595847098718]}, "properties": {"FID": 61, "POSTALCODE": "78862", "TOTALROOMS": "386", "ADDRESS": "1 Gopeng Street", "NAME": "Carlton City Hotel Singapore"}}, {"type": "Feature", "id": 62, "geometry": {"type": "Point", "coordinates": [103.852518905114, 1.29592645138237]}, "properties": {"FID": 62, "POSTALCODE": "189558", "TOTALROOMS": "940", "ADDRESS": "76 Bras Basah Road", "NAME": "Carlton Hotel"}}, {"type": "Feature", "id": 63, "geometry": {"type": "Point", "coordinates": [103.856400968724, 1.30668625812356]}, "properties": {"FID": 63, "POSTALCODE": "208852", "TOTALROOMS": "15", "ADDRESS": "134 Jalan Besar", "NAME": "Central 65 Hostel & Cafe"}}, {"type": "Feature", "id": 64, "geometry": {"type": "Point", "coordinates": [103.898375896409, 1.31473398651117]}, "properties": {"FID": 64, "POSTALCODE": "427726", "TOTALROOMS": "81", "ADDRESS": "60 Joo Chiat Road", "NAME": "Champion Hotel"}}, {"type": "Feature", "id": 65, "geometry": {"type": "Point", "coordinates": [103.847101921174, 1.28705722894813]}, "properties": {"FID": 65, "POSTALCODE": "59293", "TOTALROOMS": "33", "ADDRESS": "37 NORTH CANAL ROAD", "NAME": "CHAMPION HOTEL CITY"}}, {"type": "Feature", "id": 66, "geometry": {"type": "Point", "coordinates": [103.975654974906, 1.38857513794368]}, "properties": {"FID": 66, "POSTALCODE": "509866", "TOTALROOMS": "141", "ADDRESS": "351 Cranwell Road", "NAME": "Changi Cove"}}, {"type": "Feature", "id": 67, "geometry": {"type": "Point", "coordinates": [103.853711566422, 1.30614609002166]}, "properties": {"FID": 67, "POSTALCODE": "207398", "TOTALROOMS": "34", "ADDRESS": "41 UPPER WELD ROAD", "NAME": "CherryLoft Express"}}, {"type": "Feature", "id": 68, "geometry": {"type": "Point", "coordinates": [103.958317576378, 1.37916855720344]}, "properties": {"FID": 68, "POSTALCODE": "509404", "TOTALROOMS": "186", "ADDRESS": "159 Jalan Loyang Besar", "NAME": "Cherryloft Resorts"}}, {"type": "Feature", "id": 69, "geometry": {"type": "Point", "coordinates": [103.847281906476, 1.28780399278201]}, "properties": {"FID": 69, "POSTALCODE": "59661", "TOTALROOMS": "11", "ADDRESS": "18 Hongkong Street", "NAME": "City Backpackers"}}, {"type": "Feature", "id": 70, "geometry": {"type": "Point", "coordinates": [103.84979866066, 1.30437834449117]}, "properties": {"FID": 70, "POSTALCODE": "228677", "TOTALROOMS": "40", "ADDRESS": "15 Mackenzie Road", "NAME": "City Inn Mackenzie"}}, {"type": "Feature", "id": 71, "geometry": {"type": "Point", "coordinates": [103.872564090499, 1.31113775645323]}, "properties": {"FID": 71, "POSTALCODE": "389120", "TOTALROOMS": "4", "ADDRESS": "12A Lorong 1 Geylang", "NAME": "CityBackpackers @ Kallang"}}, {"type": "Feature", "id": 72, "geometry": {"type": "Point", "coordinates": [103.858162193337, 1.30943019936259]}, "properties": {"FID": 72, "POSTALCODE": "208913", "TOTALROOMS": "42", "ADDRESS": "240 Jalan Besar , # 01-01", "NAME": "Classique Hotel"}}, {"type": "Feature", "id": 73, "geometry": {"type": "Point", "coordinates": [103.842228048711, 1.3006143750878]}, "properties": {"FID": 73, "POSTALCODE": "238840", "TOTALROOMS": "418", "ADDRESS": "100 Orchard Road", "NAME": "Concorde Hotel Singapore"}}, {"type": "Feature", "id": 74, "geometry": {"type": "Point", "coordinates": [103.858774758518, 1.29352505248066]}, "properties": {"FID": 74, "POSTALCODE": "38982", "TOTALROOMS": "512", "ADDRESS": "2 Temasek Boulevard", "NAME": "Conrad Centennial Singapore"}}, {"type": "Feature", "id": 75, "geometry": {"type": "Point", "coordinates": [103.834726685435, 1.28500520502651]}, "properties": {"FID": 75, "POSTALCODE": "169056", "TOTALROOMS": "11", "ADDRESS": "259 OUTRAM ROAD THE PLOT HOSTELS", "NAME": "COO"}}, {"type": "Feature", "id": 76, "geometry": {"type": "Point", "coordinates": [103.836642492271, 1.28825960193419]}, "properties": {"FID": 76, "POSTALCODE": "169632", "TOTALROOMS": "313", "ADDRESS": "403 Havelock Road", "NAME": "Copthorne King Hotel Singapore"}}, {"type": "Feature", "id": 77, "geometry": {"type": "Point", "coordinates": [103.858380322067, 1.30260728483038]}, "properties": {"FID": 77, "POSTALCODE": "199137", "TOTALROOMS": "6", "ADDRESS": "5 JALAN PINANG", "NAME": "Coral Hostel"}}, {"type": "Feature", "id": 78, "geometry": {"type": "Point", "coordinates": [103.843158860125, 1.32052981472322]}, "properties": {"FID": 78, "POSTALCODE": "329568", "TOTALROOMS": "250", "ADDRESS": "99 IRRAWADDY ROAD, # 22-00 ROYAL SQUARE AT NOVENA", "NAME": "Courtyard By Marriott Singapore Novena"}}, {"type": "Feature", "id": 79, "geometry": {"type": "Point", "coordinates": [103.872875882108, 1.31077390397122]}, "properties": {"FID": 79, "POSTALCODE": "389198", "TOTALROOMS": "5", "ADDRESS": "77A Geylang Road", "NAME": "Coziee Lodge"}}, {"type": "Feature", "id": 80, "geometry": {"type": "Point", "coordinates": [103.819279862628, 1.25593387022493]}, "properties": {"FID": 80, "POSTALCODE": "98270", "TOTALROOMS": "121", "ADDRESS": "10 Sentosa Gateway", "NAME": "Crockfords Tower"}}, {"type": "Feature", "id": 81, "geometry": {"type": "Point", "coordinates": [103.987947174349, 1.35868034463671]}, "properties": {"FID": 81, "POSTALCODE": "819664", "TOTALROOMS": "563", "ADDRESS": "75 Airport Boulevard", "NAME": "Crowne Plaza Changi Airport"}}, {"type": "Feature", "id": 82, "geometry": {"type": "Point", "coordinates": [103.85937251323, 1.30162129110264]}, "properties": {"FID": 82, "POSTALCODE": "199471", "TOTALROOMS": "7", "ADDRESS": "55 BUSSORAH STREET", "NAME": "Cube @ Kampong Glam"}}, {"type": "Feature", "id": 83, "geometry": {"type": "Point", "coordinates": [103.843005966523, 1.28316148266942]}, "properties": {"FID": 83, "POSTALCODE": "58971", "TOTALROOMS": "7", "ADDRESS": "76A SMITH STREET", "NAME": "CUBE @ smith street"}}, {"type": "Feature", "id": 84, "geometry": {"type": "Point", "coordinates": [103.876969981726, 1.31090089694818]}, "properties": {"FID": 84, "POSTALCODE": "399096", "TOTALROOMS": "62", "ADDRESS": "32 Lorong 8 Geylang", "NAME": "Darlene Hotel (Geylang)"}}, {"type": "Feature", "id": 85, "geometry": {"type": "Point", "coordinates": [103.847365849093, 1.32697771687602]}, "properties": {"FID": 85, "POSTALCODE": "329133", "TOTALROOMS": "405", "ADDRESS": "1 Jalan Rajah", "NAME": "Days Hotel Singapore At Zhongshan Park"}}, {"type": "Feature", "id": 86, "geometry": {"type": "Point", "coordinates": [103.877397287952, 1.3106742945731]}, "properties": {"FID": 86, "POSTALCODE": "399099", "TOTALROOMS": "27", "ADDRESS": "37A Lorong 8 Geylang", "NAME": "Deluxe Hotel"}}, {"type": "Feature", "id": 87, "geometry": {"type": "Point", "coordinates": [103.864169308466, 1.30236656066379]}, "properties": {"FID": 87, "POSTALCODE": "199598", "TOTALROOMS": "300", "ADDRESS": "700 BEACH ROAD 700 BEACH", "NAME": "Destination Singapore Beach Road"}}, {"type": "Feature", "id": 88, "geometry": {"type": "Point", "coordinates": [103.850402273688, 1.29850072831777]}, "properties": {"FID": 88, "POSTALCODE": "189621", "TOTALROOMS": "131", "ADDRESS": "30 BENCOOLEN STREET", "NAME": "30 BENCOOLEN"}}, {"type": "Feature", "id": 89, "geometry": {"type": "Point", "coordinates": [103.845323108866, 1.28192549988674]}, "properties": {"FID": 89, "POSTALCODE": "58818", "TOTALROOMS": "24", "ADDRESS": "269 South Bridge Road (Level 3)", "NAME": "5footway.inn Project Ann Siang"}}, {"type": "Feature", "id": 90, "geometry": {"type": "Point", "coordinates": [103.843903526484, 1.28344955820621]}, "properties": {"FID": 90, "POSTALCODE": "59222", "TOTALROOMS": "20", "ADDRESS": "63A Pagoda Street", "NAME": "5footway.inn Project Chinatown 1"}}, {"type": "Feature", "id": 91, "geometry": {"type": "Point", "coordinates": [103.85814410339, 1.31559231492515]}, "properties": {"FID": 91, "POSTALCODE": "218184", "TOTALROOMS": "7", "ADDRESS": "569 Serangoon Road", "NAME": "60's Hostel"}}, {"type": "Feature", "id": 92, "geometry": {"type": "Point", "coordinates": [103.858155139146, 1.31019245041021]}, "properties": {"FID": 92, "POSTALCODE": "208930", "TOTALROOMS": "6", "ADDRESS": "257 Jalan Besar", "NAME": "7 Wonders Hostel"}}, {"type": "Feature", "id": 93, "geometry": {"type": "Point", "coordinates": [103.856569915738, 1.29730327640586]}, "properties": {"FID": 93, "POSTALCODE": "189694", "TOTALROOMS": "38", "ADDRESS": "85 Beach Road", "NAME": "85 Beach Garden Hotel"}}, {"type": "Feature", "id": 94, "geometry": {"type": "Point", "coordinates": [103.859267554398, 1.3036688878004]}, "properties": {"FID": 94, "POSTALCODE": "199201", "TOTALROOMS": "22", "ADDRESS": "3  Jalan Kubor (1st Storey)", "NAME": "ABC HOSTEL"}}, {"type": "Feature", "id": 95, "geometry": {"type": "Point", "coordinates": [103.853106388793, 1.31327445464208]}, "properties": {"FID": 95, "POSTALCODE": "218903", "TOTALROOMS": "6", "ADDRESS": "91A Owen Road", "NAME": "ABC Premium Hostel"}}, {"type": "Feature", "id": 96, "geometry": {"type": "Point", "coordinates": [103.852965176254, 1.30448417119751]}, "properties": {"FID": 96, "POSTALCODE": "208127", "TOTALROOMS": "7", "ADDRESS": "6 Perak Road", "NAME": "Adamson Lodge"}}, {"type": "Feature", "id": 97, "geometry": {"type": "Point", "coordinates": [103.884680933895, 1.31324105841816]}, "properties": {"FID": 97, "POSTALCODE": "389447", "TOTALROOMS": "16", "ADDRESS": "488 GEYLANG ROAD", "NAME": "AL Asia Hotel"}}, {"type": "Feature", "id": 98, "geometry": {"type": "Point", "coordinates": [103.86026807694, 1.30336026640158]}, "properties": {"FID": 98, "POSTALCODE": "199948", "TOTALROOMS": "53", "ADDRESS": "77 Aliwal Street", "NAME": "Aliwal Park Hotel"}}, {"type": "Feature", "id": 99, "geometry": {"type": "Point", "coordinates": [103.822016586522, 1.25212800139527]}, "properties": {"FID": 99, "POSTALCODE": "99394", "TOTALROOMS": "140", "ADDRESS": "1 Larkhill Road", "NAME": "Amara Sanctuary Resort, Sentosa"}}, {"type": "Feature", "id": 100, "geometry": {"type": "Point", "coordinates": [103.84354953753, 1.27492766193191]}, "properties": {"FID": 100, "POSTALCODE": "88539", "TOTALROOMS": "380", "ADDRESS": "165 Tanjong Pagar Road", "NAME": "Amara Singapore"}}, {"type": "Feature", "id": 101, "geometry": {"type": "Point", "coordinates": [103.85583776791, 1.29671458140244]}, "properties": {"FID": 101, "POSTALCODE": "188931", "TOTALROOMS": "38", "ADDRESS": "21 Middle Road", "NAME": "Amaris by Santika"}}, {"type": "Feature", "id": 102, "geometry": {"type": "Point", "coordinates": [103.901244734295, 1.30092011959832]}, "properties": {"FID": 102, "POSTALCODE": "439885", "TOTALROOMS": "21", "ADDRESS": "42 Amber Road", "NAME": "Amber Hotel"}}, {"type": "Feature", "id": 103, "geometry": {"type": "Point", "coordinates": [103.900986793785, 1.30086114574921]}, "properties": {"FID": 103, "POSTALCODE": "439878", "TOTALROOMS": "25", "ADDRESS": "40 Amber Road", "NAME": "Amber Hotel Katong"}}, {"type": "Feature", "id": 104, "geometry": {"type": "Point", "coordinates": [103.848645404379, 1.28300039751715]}, "properties": {"FID": 104, "POSTALCODE": "48464", "TOTALROOMS": "37", "ADDRESS": "76 Telok Ayer Street", "NAME": "Amoy Hotel"}}, {"type": "Feature", "id": 105, "geometry": {"type": "Point", "coordinates": [103.877872248079, 1.31392278669744]}, "properties": {"FID": 105, "POSTALCODE": "387436", "TOTALROOMS": "58", "ADDRESS": "112 Sims Avenue , # 01-01", "NAME": "Amrise Hotel"}}, {"type": "Feature", "id": 106, "geometry": {"type": "Point", "coordinates": [103.857859536562, 1.29916296452225]}, "properties": {"FID": 106, "POSTALCODE": "189354", "TOTALROOMS": "342", "ADDRESS": "5 FRASER STREET", "NAME": "Andaz Singapore"}}, {"type": "Feature", "id": 107, "geometry": {"type": "Point", "coordinates": [103.845765377455, 1.2807613386539]}, "properties": {"FID": 107, "POSTALCODE": "69708", "TOTALROOMS": "20", "ADDRESS": "28 ANN SIANG ROAD", "NAME": "Ann Siang House"}}, {"type": "Feature", "id": 108, "geometry": {"type": "Point", "coordinates": [103.858027583152, 1.30929086614322]}, "properties": {"FID": 108, "POSTALCODE": "208906", "TOTALROOMS": "74", "ADDRESS": "230 Jalan Besar", "NAME": "AQUEEN - Jalan Besar Hotel"}}, {"type": "Feature", "id": 109, "geometry": {"type": "Point", "coordinates": [103.898608718403, 1.3149641392528]}, "properties": {"FID": 109, "POSTALCODE": "427373", "TOTALROOMS": "70", "ADDRESS": "51 Joo Chiat Road", "NAME": "Aqueen Heritage Hotel - Joo Chiat"}}, {"type": "Feature", "id": 110, "geometry": {"type": "Point", "coordinates": [103.851868264309, 1.3073654204284]}, "properties": {"FID": 110, "POSTALCODE": "219962", "TOTALROOMS": "70", "ADDRESS": "22 BELILIOS LANE", "NAME": "AQUEEN Heritage Hotel - Little India"}}, {"type": "Feature", "id": 111, "geometry": {"type": "Point", "coordinates": [103.849916618339, 1.3252259929324]}, "properties": {"FID": 111, "POSTALCODE": "329795", "TOTALROOMS": "45", "ADDRESS": "387  Balestier Road", "NAME": "Aqueen Hotel - Balestier"}}, {"type": "Feature", "id": 112, "geometry": {"type": "Point", "coordinates": [103.861185773057, 1.31234470213003]}, "properties": {"FID": 112, "POSTALCODE": "338739", "TOTALROOMS": "104", "ADDRESS": "139 Lavender Street", "NAME": "Aqueen Hotel - Lavender"}}, {"type": "Feature", "id": 113, "geometry": {"type": "Point", "coordinates": [103.891617683162, 1.32208820448373]}, "properties": {"FID": 113, "POSTALCODE": "409180", "TOTALROOMS": "162", "ADDRESS": "33 Jalan Afifi", "NAME": "Aqueen Hotel - Paya Lebar"}}, {"type": "Feature", "id": 114, "geometry": {"type": "Point", "coordinates": [103.861329482586, 1.3114598023555]}, "properties": {"FID": 114, "POSTALCODE": "209201", "TOTALROOMS": "36", "ADDRESS": "32 Hamilton Road", "NAME": "Arcadia Hotel"}}, {"type": "Feature", "id": 115, "geometry": {"type": "Point", "coordinates": [103.855916072013, 1.3089819751033]}, "properties": {"FID": 115, "POSTALCODE": "207662", "TOTALROOMS": "51", "ADDRESS": "83 Syed Alwi Road", "NAME": "Arianna Hotel"}}, {"type": "Feature", "id": 116, "geometry": {"type": "Point", "coordinates": [103.872957808316, 1.31083994117316]}, "properties": {"FID": 116, "POSTALCODE": "389200", "TOTALROOMS": "31", "ADDRESS": "83B Geylang Road", "NAME": "Ark Hostel"}}, {"type": "Feature", "id": 117, "geometry": {"type": "Point", "coordinates": [103.860855928919, 1.312000138366]}, "properties": {"FID": 117, "POSTALCODE": "207576", "TOTALROOMS": "109", "ADDRESS": "176 Tyrwhitt Road", "NAME": "Arton Hotel"}}, {"type": "Feature", "id": 118, "geometry": {"type": "Point", "coordinates": [103.837118388265, 1.303988701434]}, "properties": {"FID": 118, "POSTALCODE": "229724", "TOTALROOMS": "220", "ADDRESS": "11 CAIRNHILL ROAD", "NAME": "Ascott Orchard Singapore"}}, {"type": "Feature", "id": 119, "geometry": {"type": "Point", "coordinates": [103.8190267122, 1.2560211102295]}, "properties": {"FID": 119, "POSTALCODE": "98271", "TOTALROOMS": "447", "ADDRESS": "12 Sentosa Gateway", "NAME": "Festive Hotel"}}, {"type": "Feature", "id": 120, "geometry": {"type": "Point", "coordinates": [103.860407494194, 1.30097779209963]}, "properties": {"FID": 120, "POSTALCODE": "199550", "TOTALROOMS": "23", "ADDRESS": "285 Beach Road", "NAME": "Five Stones Hostel at Beach Road"}}, {"type": "Feature", "id": 121, "geometry": {"type": "Point", "coordinates": [103.876690707579, 1.3109100114932]}, "properties": {"FID": 121, "POSTALCODE": "399167", "TOTALROOMS": "72", "ADDRESS": "5 LORONG 6 GEYLANG", "NAME": "five/6 Hotel Splendour"}}, {"type": "Feature", "id": 122, "geometry": {"type": "Point", "coordinates": [103.854064077296, 1.30549418125162]}, "properties": {"FID": 122, "POSTALCODE": "208136", "TOTALROOMS": "22", "ADDRESS": "25A Perak Road  , # 01-01", "NAME": "Footprints Hostel"}}, {"type": "Feature", "id": 123, "geometry": {"type": "Point", "coordinates": [103.854953212997, 1.31170734262645]}, "properties": {"FID": 123, "POSTALCODE": "218842", "TOTALROOMS": "105", "ADDRESS": "2 Owen Road", "NAME": "Fortuna Hotel"}}, {"type": "Feature", "id": 124, "geometry": {"type": "Point", "coordinates": [103.890924420622, 1.31502462170794]}, "properties": {"FID": 124, "POSTALCODE": "389659", "TOTALROOMS": "44", "ADDRESS": "757 Geylang Road", "NAME": "Four Chain View Hotel"}}, {"type": "Feature", "id": 125, "geometry": {"type": "Point", "coordinates": [103.8366038142, 1.28937099588318]}, "properties": {"FID": 125, "POSTALCODE": "169629", "TOTALROOMS": "476", "ADDRESS": "382 Havelock Road", "NAME": "Four Points by Sheraton Singapore, Riverview"}}, {"type": "Feature", "id": 126, "geometry": {"type": "Point", "coordinates": [103.82865272817, 1.30521022721764]}, "properties": {"FID": 126, "POSTALCODE": "248646", "TOTALROOMS": "255", "ADDRESS": "190 Orchard Boulevard", "NAME": "Four Seasons Hotel"}}, {"type": "Feature", "id": 127, "geometry": {"type": "Point", "coordinates": [103.852659083222, 1.32197358759818]}, "properties": {"FID": 127, "POSTALCODE": "329710", "TOTALROOMS": "48", "ADDRESS": "255 Balestier Road", "NAME": "Fragrance Hotel - Balestier"}}, {"type": "Feature", "id": 128, "geometry": {"type": "Point", "coordinates": [103.855556159797, 1.29692082881068]}, "properties": {"FID": 128, "POSTALCODE": "188942", "TOTALROOMS": "84", "ADDRESS": "33 Middle Road", "NAME": "Fragrance Hotel - Bugis"}}, {"type": "Feature", "id": 129, "geometry": {"type": "Point", "coordinates": [103.849620816739, 1.32586368679107]}, "properties": {"FID": 129, "POSTALCODE": "329808", "TOTALROOMS": "48", "ADDRESS": "418 Balestier Road", "NAME": "Fragrance Hotel - Classic"}}, {"type": "Feature", "id": 130, "geometry": {"type": "Point", "coordinates": [103.880589488416, 1.31057499286545]}, "properties": {"FID": 130, "POSTALCODE": "398824", "TOTALROOMS": "125", "ADDRESS": "50 Lorong 18 Geylang", "NAME": "Fragrance Hotel - Crystal"}}, {"type": "Feature", "id": 131, "geometry": {"type": "Point", "coordinates": [103.87634175343, 1.31100989103897]}, "properties": {"FID": 131, "POSTALCODE": "399174", "TOTALROOMS": "126", "ADDRESS": "20 Lorong 6 Geylang", "NAME": "Fragrance Hotel - Emerald"}}, {"type": "Feature", "id": 132, "geometry": {"type": "Point", "coordinates": [103.862425383983, 1.30963598661086]}, "properties": {"FID": 132, "POSTALCODE": "208187", "TOTALROOMS": "74", "ADDRESS": "28 Penhas Road", "NAME": "Fragrance Hotel - Imperial"}}, {"type": "Feature", "id": 133, "geometry": {"type": "Point", "coordinates": [103.878733106106, 1.35406397038]}, "properties": {"FID": 133, "POSTALCODE": "534629", "TOTALROOMS": "43", "ADDRESS": "760 Upper Serangoon Road", "NAME": "Fragrance Hotel - Kovan"}}, {"type": "Feature", "id": 134, "geometry": {"type": "Point", "coordinates": [103.86307079238, 1.309789597979]}, "properties": {"FID": 134, "POSTALCODE": "338710", "TOTALROOMS": "35", "ADDRESS": "51 Lavender Street", "NAME": "Fragrance Hotel - Lavender"}}, {"type": "Feature", "id": 135, "geometry": {"type": "Point", "coordinates": [103.848605461398, 1.32588610617081]}, "properties": {"FID": 135, "POSTALCODE": "329816", "TOTALROOMS": "36", "ADDRESS": "435 Balestier Road", "NAME": "Fragrance Hotel - Oasis"}}, {"type": "Feature", "id": 136, "geometry": {"type": "Point", "coordinates": [103.76851279848, 1.29241376579142]}, "properties": {"FID": 136, "POSTALCODE": "118773", "TOTALROOMS": "47", "ADDRESS": "432 Pasir Panjang Road", "NAME": "Fragrance Hotel - Ocean View"}}, {"type": "Feature", "id": 137, "geometry": {"type": "Point", "coordinates": [103.879289384032, 1.3115607699172]}, "properties": {"FID": 137, "POSTALCODE": "398961", "TOTALROOMS": "129", "ADDRESS": "21 Lorong 14 Geylang", "NAME": "Fragrance Hotel - Pearl"}}, {"type": "Feature", "id": 138, "geometry": {"type": "Point", "coordinates": [103.847146413326, 1.28789637982149]}, "properties": {"FID": 138, "POSTALCODE": "59663", "TOTALROOMS": "101", "ADDRESS": "20 Hongkong Street", "NAME": "Fragrance Hotel - Riverside"}}, {"type": "Feature", "id": 139, "geometry": {"type": "Point", "coordinates": [103.852597259984, 1.32207596396212]}, "properties": {"FID": 139, "POSTALCODE": "329715", "TOTALROOMS": "68", "ADDRESS": "263 Balestier Road", "NAME": "Fragrance Hotel - Rose"}}, {"type": "Feature", "id": 140, "geometry": {"type": "Point", "coordinates": [103.813874982096, 1.26970676737395]}, "properties": {"FID": 140, "POSTALCODE": "98838", "TOTALROOMS": "32", "ADDRESS": "400 Telok Blangah Road", "NAME": "Fragrance Hotel - Royal"}}, {"type": "Feature", "id": 141, "geometry": {"type": "Point", "coordinates": [103.881097094689, 1.31223808941979]}, "properties": {"FID": 141, "POSTALCODE": "398730", "TOTALROOMS": "168", "ADDRESS": "10 Lorong 20 Geylang", "NAME": "Fragrance Hotel - Ruby"}}, {"type": "Feature", "id": 142, "geometry": {"type": "Point", "coordinates": [103.877769457101, 1.31175752212666]}, "properties": {"FID": 142, "POSTALCODE": "399037", "TOTALROOMS": "50", "ADDRESS": "3 Lorong 10 Geylang", "NAME": "Fragrance Hotel - Sapphire"}}, {"type": "Feature", "id": 143, "geometry": {"type": "Point", "coordinates": [103.849949298863, 1.30376519686545]}, "properties": {"FID": 143, "POSTALCODE": "188329", "TOTALROOMS": "95", "ADDRESS": "183 Selegie Road", "NAME": "Fragrance Hotel - Selegie"}}, {"type": "Feature", "id": 144, "geometry": {"type": "Point", "coordinates": [103.877486049857, 1.31142581262545]}, "properties": {"FID": 144, "POSTALCODE": "399043", "TOTALROOMS": "27", "ADDRESS": "10 Lorong 10 Geylang", "NAME": "Fragrance Hotel - Sunflower"}}, {"type": "Feature", "id": 145, "geometry": {"type": "Point", "coordinates": [103.81396978511, 1.26988807608291]}, "properties": {"FID": 145, "POSTALCODE": "98721", "TOTALROOMS": "33", "ADDRESS": "75 Wishart Road", "NAME": "Fragrance Hotel - Viva"}}, {"type": "Feature", "id": 146, "geometry": {"type": "Point", "coordinates": [103.768888272797, 1.29220893327916]}, "properties": {"FID": 146, "POSTALCODE": "118759", "TOTALROOMS": "57", "ADDRESS": "418 Pasir Panjang Road", "NAME": "Fragrance Hotel - Waterfront"}}, {"type": "Feature", "id": 147, "geometry": {"type": "Point", "coordinates": [103.858904446973, 1.31064625390619]}, "properties": {"FID": 147, "POSTALCODE": "208953", "TOTALROOMS": "13", "ADDRESS": "290A Jalan Besar", "NAME": "Travellers Loft @ Jalan Besar"}}, {"type": "Feature", "id": 148, "geometry": {"type": "Point", "coordinates": [103.88372355775, 1.3161266821754]}, "properties": {"FID": 148, "POSTALCODE": "388189", "TOTALROOMS": "11", "ADDRESS": "67A Lorong 27 Geylang", "NAME": "Urban Hostel"}}, {"type": "Feature", "id": 149, "geometry": {"type": "Point", "coordinates": [103.850763165418, 1.29894386638566]}, "properties": {"FID": 149, "POSTALCODE": "189627", "TOTALROOMS": "272", "ADDRESS": "48 Bencoolen Street", "NAME": "V Hotel Bencoolen"}}, {"type": "Feature", "id": 150, "geometry": {"type": "Point", "coordinates": [103.862525578855, 1.30780928918302]}, "properties": {"FID": 150, "POSTALCODE": "208767", "TOTALROOMS": "888", "ADDRESS": "70 Jellicoe Road", "NAME": "V Hotel Lavender"}}, {"type": "Feature", "id": 151, "geometry": {"type": "Point", "coordinates": [103.853270531765, 1.32123983104438]}, "properties": {"FID": 151, "POSTALCODE": "329684", "TOTALROOMS": "208", "ADDRESS": "218 Balestier Road", "NAME": "Value Hotel - Balestier"}}, {"type": "Feature", "id": 152, "geometry": {"type": "Point", "coordinates": [103.852504393505, 1.3233449518912]}, "properties": {"FID": 152, "POSTALCODE": "329738", "TOTALROOMS": "63", "ADDRESS": "302 Balestier Road", "NAME": "Value Hotel - Nice"}}, {"type": "Feature", "id": 153, "geometry": {"type": "Point", "coordinates": [103.842719925309, 1.32695574576393]}, "properties": {"FID": 153, "POSTALCODE": "329901", "TOTALROOMS": "366", "ADDRESS": "592 Balestier Road", "NAME": "Value Hotel - Thomson"}}, {"type": "Feature", "id": 154, "geometry": {"type": "Point", "coordinates": [103.878121231762, 1.31140086522855]}, "properties": {"FID": 154, "POSTALCODE": "398993", "TOTALROOMS": "175", "ADDRESS": "12 Lorong 12 Geylang", "NAME": "Home Suite View Hotel"}}, {"type": "Feature", "id": 155, "geometry": {"type": "Point", "coordinates": [103.853069625366, 1.32170319380593]}, "properties": {"FID": 155, "POSTALCODE": "329706", "TOTALROOMS": "42", "ADDRESS": "246 Balestier Road , # 02-01", "NAME": "Hoover Hotel"}}, {"type": "Feature", "id": 156, "geometry": {"type": "Point", "coordinates": [103.877803628682, 1.31159152903946]}, "properties": {"FID": 156, "POSTALCODE": "399042", "TOTALROOMS": "35", "ADDRESS": "9 LORONG 10 GEYLANG NEW HAPPY HOTEL", "NAME": "Hornbill Hotel"}}, {"type": "Feature", "id": 157, "geometry": {"type": "Point", "coordinates": [103.856274003402, 1.3104789359067]}, "properties": {"FID": 157, "POSTALCODE": "208532", "TOTALROOMS": "68", "ADDRESS": "165 Kitchener Road", "NAME": "Hotel 165"}}, {"type": "Feature", "id": 158, "geometry": {"type": "Point", "coordinates": [103.844175145776, 1.28256763125627]}, "properties": {"FID": 158, "POSTALCODE": "58476", "TOTALROOMS": "80", "ADDRESS": "25 TRENGGANU STREET OPERA HOUSE HOTEL", "NAME": "Hotel 1887"}}, {"type": "Feature", "id": 159, "geometry": {"type": "Point", "coordinates": [103.843899645069, 1.28285933531776]}, "properties": {"FID": 159, "POSTALCODE": "58479", "TOTALROOMS": "40", "ADDRESS": "20 TRENGGANU STREET, # 01-03 JINSHAN HOTEL", "NAME": "Hotel 1888"}}, {"type": "Feature", "id": 160, "geometry": {"type": "Point", "coordinates": [103.841812290883, 1.28079216749981]}, "properties": {"FID": 160, "POSTALCODE": "89154", "TOTALROOMS": "33", "ADDRESS": "50 KEONG SAIK ROAD", "NAME": "Hotel 1929"}}, {"type": "Feature", "id": 161, "geometry": {"type": "Point", "coordinates": [103.85312373904, 1.32137962709565]}, "properties": {"FID": 161, "POSTALCODE": "329688", "TOTALROOMS": "53", "ADDRESS": "226 Balestier Road", "NAME": "Hotel 81 - Balestier"}}, {"type": "Feature", "id": 162, "geometry": {"type": "Point", "coordinates": [103.855618619906, 1.29687854377949]}, "properties": {"FID": 162, "POSTALCODE": "188995", "TOTALROOMS": "88", "ADDRESS": "31 Middle Road", "NAME": "Hotel 81 - Bugis"}}, {"type": "Feature", "id": 163, "geometry": {"type": "Point", "coordinates": [103.911729073637, 1.318691164471]}, "properties": {"FID": 163, "POSTALCODE": "419871", "TOTALROOMS": "80", "ADDRESS": "428 Changi Road , # 01-01", "NAME": "Hotel 81 - Changi"}}, {"type": "Feature", "id": 164, "geometry": {"type": "Point", "coordinates": [103.878417374354, 1.31199122265235]}, "properties": {"FID": 164, "POSTALCODE": "399014", "TOTALROOMS": "53", "ADDRESS": "3 Lorong 12 Geylang", "NAME": "Hotel 81 - Cherry"}}, {"type": "Feature", "id": 165, "geometry": {"type": "Point", "coordinates": [103.844098490786, 1.2845636843015]}, "properties": {"FID": 165, "POSTALCODE": "59418", "TOTALROOMS": "95", "ADDRESS": "181 New Bridge Road", "NAME": "Hotel 81 - Chinatown"}}, {"type": "Feature", "id": 166, "geometry": {"type": "Point", "coordinates": [103.841859430773, 1.27966690856048]}, "properties": {"FID": 166, "POSTALCODE": "89263", "TOTALROOMS": "39", "ADDRESS": "8 Jiak Chuan Road", "NAME": "Hotel 81 - Cosy"}}, {"type": "Feature", "id": 167, "geometry": {"type": "Point", "coordinates": [103.85426933827, 1.30490447677781]}, "properties": {"FID": 167, "POSTALCODE": "209530", "TOTALROOMS": "196", "ADDRESS": "3 Dickson Road", "NAME": "Hotel 81 - Dickson"}}, {"type": "Feature", "id": 168, "geometry": {"type": "Point", "coordinates": [103.860272230944, 1.3123797888847]}, "properties": {"FID": 168, "POSTALCODE": "209276", "TOTALROOMS": "120", "ADDRESS": "30 Foch Road , # 01-01", "NAME": "Hotel 81 - Elegance"}}, {"type": "Feature", "id": 169, "geometry": {"type": "Point", "coordinates": [103.852599955584, 1.32218490731714]}, "properties": {"FID": 169, "POSTALCODE": "329720", "TOTALROOMS": "78", "ADDRESS": "269 Balestier Road", "NAME": "Hotel 81 - Fuji"}}, {"type": "Feature", "id": 170, "geometry": {"type": "Point", "coordinates": [103.879565350479, 1.31178588823832]}, "properties": {"FID": 170, "POSTALCODE": "398863", "TOTALROOMS": "88", "ADDRESS": "20 Lorong 16 Geylang", "NAME": "Hotel 81 - Geylang"}}, {"type": "Feature", "id": 171, "geometry": {"type": "Point", "coordinates": [103.881122143588, 1.311956436403]}, "properties": {"FID": 171, "POSTALCODE": "398738", "TOTALROOMS": "98", "ADDRESS": "20 Lorong 20 Geylang", "NAME": "Hotel 81 - Gold"}}, {"type": "Feature", "id": 172, "geometry": {"type": "Point", "coordinates": [103.861299876611, 1.30271607703264]}, "properties": {"FID": 172, "POSTALCODE": "198985", "TOTALROOMS": "64", "ADDRESS": "71 Jalan Sultan Road", "NAME": "Hotel 81 - Heritage"}}, {"type": "Feature", "id": 173, "geometry": {"type": "Point", "coordinates": [103.87744776298, 1.31005584133096]}, "properties": {"FID": 173, "POSTALCODE": "399121", "TOTALROOMS": "112", "ADDRESS": "61 Lorong 8 Geylang", "NAME": "Hotel 81 - Hollywood"}}, {"type": "Feature", "id": 174, "geometry": {"type": "Point", "coordinates": [103.876803319148, 1.31278804802685]}, "properties": {"FID": 174, "POSTALCODE": "388703", "TOTALROOMS": "42", "ADDRESS": "11 Lorong 11 Geylang", "NAME": "Hotel 81 - Joy"}}, {"type": "Feature", "id": 175, "geometry": {"type": "Point", "coordinates": [103.878866755831, 1.35420716577647]}, "properties": {"FID": 175, "POSTALCODE": "534636", "TOTALROOMS": "89", "ADDRESS": "768 Upper Serangoon Road , # 02-01", "NAME": "Hotel 81 - Kovan"}}, {"type": "Feature", "id": 176, "geometry": {"type": "Point", "coordinates": [103.862351666509, 1.31075783187662]}, "properties": {"FID": 176, "POSTALCODE": "338716", "TOTALROOMS": "85", "ADDRESS": "85 Lavender Street", "NAME": "Hotel 81 - Lavender"}}, {"type": "Feature", "id": 177, "geometry": {"type": "Point", "coordinates": [103.860677173023, 1.31139114844172]}, "properties": {"FID": 177, "POSTALCODE": "209178", "TOTALROOMS": "6", "ADDRESS": "7A Hamilton Road", "NAME": "Meadows Hostel"}}, {"type": "Feature", "id": 178, "geometry": {"type": "Point", "coordinates": [103.853083058386, 1.29963654829992]}, "properties": {"FID": 178, "POSTALCODE": "188973", "TOTALROOMS": "395", "ADDRESS": "122 MIDDLE ROAD MIDLINK PLAZA", "NAME": "Mercure Singapore Bugis"}}, {"type": "Feature", "id": 179, "geometry": {"type": "Point", "coordinates": [103.828523125949, 1.31385975574684]}, "properties": {"FID": 179, "POSTALCODE": "257878", "TOTALROOMS": "518", "ADDRESS": "28 STEVENS ROAD, # 02-01", "NAME": "Mercure Singapore on Stevens"}}, {"type": "Feature", "id": 180, "geometry": {"type": "Point", "coordinates": [103.854659348388, 1.30474092364591]}, "properties": {"FID": 180, "POSTALCODE": "208804", "TOTALROOMS": "40", "ADDRESS": "43A Jalan Besar", "NAME": "Meriton Hotel"}}, {"type": "Feature", "id": 181, "geometry": {"type": "Point", "coordinates": [103.88246128007, 1.31219950254484]}, "properties": {"FID": 181, "POSTALCODE": "398676", "TOTALROOMS": "97", "ADDRESS": "19 Lorong 22 Geylang", "NAME": "Min Wah Hotel"}}, {"type": "Feature", "id": 182, "geometry": {"type": "Point", "coordinates": [103.85776474652, 1.31507482136674]}, "properties": {"FID": 182, "POSTALCODE": "218163", "TOTALROOMS": "26", "ADDRESS": "531 Serangoon Road", "NAME": "Mitraa Inn"}}, {"type": "Feature", "id": 183, "geometry": {"type": "Point", "coordinates": [103.853524368307, 1.3067967575257]}, "properties": {"FID": 183, "POSTALCODE": "209757", "TOTALROOMS": "5", "ADDRESS": "44 Cuff Road", "NAME": "MKS Backpackers' Hostel"}}, {"type": "Feature", "id": 184, "geometry": {"type": "Point", "coordinates": [103.858988987295, 1.31544176036954]}, "properties": {"FID": 184, "POSTALCODE": "338795", "TOTALROOMS": "9", "ADDRESS": "263 Lavender Street", "NAME": "Moni Gallery Hostel"}}, {"type": "Feature", "id": 185, "geometry": {"type": "Point", "coordinates": [103.854044360719, 1.3050839652023]}, "properties": {"FID": 185, "POSTALCODE": "209507", "TOTALROOMS": "80", "ADDRESS": "23 Dickson Road", "NAME": "Moon 23 Hotel"}}, {"type": "Feature", "id": 186, "geometry": {"type": "Point", "coordinates": [103.857589206983, 1.31594840041421]}, "properties": {"FID": 186, "POSTALCODE": "218675", "TOTALROOMS": "8", "ADDRESS": "429 RACE COURSE ROAD MORI HOSTEL", "NAME": "Mori Hostel"}}, {"type": "Feature", "id": 187, "geometry": {"type": "Point", "coordinates": [103.855181685315, 1.29586809905475]}, "properties": {"FID": 187, "POSTALCODE": "188396", "TOTALROOMS": "73", "ADDRESS": "41 Seah Street", "NAME": "Naumi"}}, {"type": "Feature", "id": 188, "geometry": {"type": "Point", "coordinates": [103.834075884942, 1.28556430629549]}, "properties": {"FID": 188, "POSTALCODE": "168891", "TOTALROOMS": "76", "ADDRESS": "3 SENG POH ROAD GREEN WORLD", "NAME": "New Cape Inn"}}, {"type": "Feature", "id": 189, "geometry": {"type": "Point", "coordinates": [103.881747206024, 1.31323582137392]}, "properties": {"FID": 189, "POSTALCODE": "389403", "TOTALROOMS": "53", "ADDRESS": "443A Geylang Road", "NAME": "New Cathay Hotel (Geylang)"}}, {"type": "Feature", "id": 190, "geometry": {"type": "Point", "coordinates": [103.851039433972, 1.32429129537902]}, "properties": {"FID": 190, "POSTALCODE": "329777", "TOTALROOMS": "68", "ADDRESS": "347 Balestier Road", "NAME": "New Orchid Hotel"}}, {"type": "Feature", "id": 191, "geometry": {"type": "Point", "coordinates": [103.858278481136, 1.31028613592826]}, "properties": {"FID": 191, "POSTALCODE": "208934", "TOTALROOMS": "4", "ADDRESS": "259A Jalan Besar", "NAME": "New Society Backpacker"}}, {"type": "Feature", "id": 192, "geometry": {"type": "Point", "coordinates": [103.862979589384, 1.3099902576772]}, "properties": {"FID": 192, "POSTALCODE": "338714", "TOTALROOMS": "11", "ADDRESS": "57 LAVENDER STREET MERCURY BACKPACKERS' HOSTEL", "NAME": "NNV Hostel"}}, {"type": "Feature", "id": 193, "geometry": {"type": "Point", "coordinates": [103.833551417023, 1.28509462809745]}, "properties": {"FID": 193, "POSTALCODE": "168727", "TOTALROOMS": "50", "ADDRESS": "77 Tiong Bahru Road", "NAME": "Nostalgia Hotel"}}, {"type": "Feature", "id": 194, "geometry": {"type": "Point", "coordinates": [103.844586298874, 1.29151478884767]}, "properties": {"FID": 194, "POSTALCODE": "179031", "TOTALROOMS": "403", "ADDRESS": "177A River Valley Road", "NAME": "Novotel Singapore Clarke Quay"}}, {"type": "Feature", "id": 195, "geometry": {"type": "Point", "coordinates": [103.828523125949, 1.31385975574684]}, "properties": {"FID": 195, "POSTALCODE": "257878", "TOTALROOMS": "254", "ADDRESS": "28 STEVENS ROAD, # 01-01", "NAME": "Novotel Singapore On Stevens"}}, {"type": "Feature", "id": 196, "geometry": {"type": "Point", "coordinates": [103.848408636545, 1.27698070912057]}, "properties": {"FID": 196, "POSTALCODE": "68809", "TOTALROOMS": "268", "ADDRESS": "6 SHENTON WAY OUE DOWNTOWN", "NAME": "Oakwood Premier OUE Singapore"}}, {"type": "Feature", "id": 197, "geometry": {"type": "Point", "coordinates": [103.844244857497, 1.27585064670584]}, "properties": {"FID": 197, "POSTALCODE": "79333", "TOTALROOMS": "314", "ADDRESS": "100 Peck Seah Street", "NAME": "Oasia Hotel Downtown, Singapore"}}, {"type": "Feature", "id": 198, "geometry": {"type": "Point", "coordinates": [103.844782392709, 1.32003005945063]}, "properties": {"FID": 198, "POSTALCODE": "307470", "TOTALROOMS": "428", "ADDRESS": "8 Sinaran Drive", "NAME": "Oasia Hotel Novena, Singapore"}}, {"type": "Feature", "id": 199, "geometry": {"type": "Point", "coordinates": [103.853842191627, 1.31275668092159]}, "properties": {"FID": 199, "POSTALCODE": "217562", "TOTALROOMS": "243", "ADDRESS": "1 Farrer Park Station Road", "NAME": "One Farrer Hotel"}}, {"type": "Feature", "id": 200, "geometry": {"type": "Point", "coordinates": [103.838344786842, 1.24659857884804]}, "properties": {"FID": 200, "POSTALCODE": "98497", "TOTALROOMS": "26", "ADDRESS": "11 Cove Drive", "NAME": "ONE15 Marina Club"}}, {"type": "Feature", "id": 201, "geometry": {"type": "Point", "coordinates": [103.828164405162, 1.30766861884188]}, "properties": {"FID": 201, "POSTALCODE": "238879", "TOTALROOMS": "656", "ADDRESS": "442 Orchard Road", "NAME": "Orchard Hotel Singapore"}}, {"type": "Feature", "id": 202, "geometry": {"type": "Point", "coordinates": [103.827739424158, 1.3065751722141]}, "properties": {"FID": 202, "POSTALCODE": "247905", "TOTALROOMS": "388", "ADDRESS": "1 Tanglin Road", "NAME": "Orchard Rendezvous Hotel, Singapore"}}, {"type": "Feature", "id": 203, "geometry": {"type": "Point", "coordinates": [103.843847226244, 1.27693675631784]}, "properties": {"FID": 203, "POSTALCODE": "78867", "TOTALROOMS": "272", "ADDRESS": "1 Tras Link", "NAME": "Orchid Hotel"}}, {"type": "Feature", "id": 204, "geometry": {"type": "Point", "coordinates": [103.851819947719, 1.29801038979517]}, "properties": {"FID": 204, "POSTALCODE": "188549", "TOTALROOMS": "134", "ADDRESS": "218 Queen Street", "NAME": "Oxford Hotel"}}, {"type": "Feature", "id": 205, "geometry": {"type": "Point", "coordinates": [103.860647267187, 1.29962023046907]}, "properties": {"FID": 205, "POSTALCODE": "199592", "TOTALROOMS": "180", "ADDRESS": "7500B Beach Road", "NAME": "Pan Pacific Serviced Suites Beach Road"}}, {"type": "Feature", "id": 206, "geometry": {"type": "Point", "coordinates": [103.851186608485, 1.30359194823422]}, "properties": {"FID": 206, "POSTALCODE": "189970", "TOTALROOMS": "172", "ADDRESS": "175 Albert Street", "NAME": "Parc Sovereign Hotel"}}, {"type": "Feature", "id": 207, "geometry": {"type": "Point", "coordinates": [103.86063379842, 1.31231710975905]}, "properties": {"FID": 207, "POSTALCODE": "207569", "TOTALROOMS": "270", "ADDRESS": "165 Tyrwhitt Road", "NAME": "Parc Sovereign Hotel - Tyrwhitt"}}, {"type": "Feature", "id": 208, "geometry": {"type": "Point", "coordinates": [103.850729189871, 1.30761953250364]}, "properties": {"FID": 208, "POSTALCODE": "219184", "TOTALROOMS": "31", "ADDRESS": "60 KERBAU ROAD", "NAME": "Park 22 hotel Little India"}}, {"type": "Feature", "id": 209, "geometry": {"type": "Point", "coordinates": [103.962987022851, 1.33569683838847]}, "properties": {"FID": 209, "POSTALCODE": "486015", "TOTALROOMS": "251", "ADDRESS": "2 Changi Business Park Avenue 1", "NAME": "Park Avenue Changi"}}, {"type": "Feature", "id": 210, "geometry": {"type": "Point", "coordinates": [103.788347377614, 1.30535121416156]}, "properties": {"FID": 210, "POSTALCODE": "138637", "TOTALROOMS": "351", "ADDRESS": "31 Rochester Drive", "NAME": "Park Avenue Rochester"}}, {"type": "Feature", "id": 211, "geometry": {"type": "Point", "coordinates": [103.805370078399, 1.28757995430499]}, "properties": {"FID": 211, "POSTALCODE": "159972", "TOTALROOMS": "442", "ADDRESS": "323 Alexandra Road Alexandra Central", "NAME": "Park Hotel Alexandra"}}, {"type": "Feature", "id": 212, "geometry": {"type": "Point", "coordinates": [103.842327426371, 1.29154597045387]}, "properties": {"FID": 212, "POSTALCODE": "237983", "TOTALROOMS": "340", "ADDRESS": "1 Unity Street", "NAME": "Park Hotel Clarke Quay"}}, {"type": "Feature", "id": 213, "geometry": {"type": "Point", "coordinates": [103.85474815833, 1.31198098796197]}, "properties": {"FID": 213, "POSTALCODE": "217564", "TOTALROOMS": "300", "ADDRESS": "10 FARRER PARK STATION ROAD FARRER SQUARE", "NAME": "PARK HOTEL FARRER PARK"}}, {"type": "Feature", "id": 214, "geometry": {"type": "Point", "coordinates": [103.84444332057, 1.28808356680545]}, "properties": {"FID": 214, "POSTALCODE": "58268", "TOTALROOMS": "202", "ADDRESS": "23 Merchant Road", "NAME": "Park Regis Singapore"}}, {"type": "Feature", "id": 215, "geometry": {"type": "Point", "coordinates": [103.856494305074, 1.29720616641681]}, "properties": {"FID": 215, "POSTALCODE": "189692", "TOTALROOMS": "88", "ADDRESS": "81 Beach Road", "NAME": "Park View Hotel"}}, {"type": "Feature", "id": 216, "geometry": {"type": "Point", "coordinates": [103.860070229864, 1.29945375399205]}, "properties": {"FID": 216, "POSTALCODE": "199591", "TOTALROOMS": "346", "ADDRESS": "7500A Beach Road The Plaza", "NAME": "PARKROYAL on Beach Road, Singapore"}}, {"type": "Feature", "id": 217, "geometry": {"type": "Point", "coordinates": [103.855657430547, 1.31053025425916]}, "properties": {"FID": 217, "POSTALCODE": "208533", "TOTALROOMS": "532", "ADDRESS": "181 Kitchener Road", "NAME": "PARKROYAL on Kitchener Road"}}, {"type": "Feature", "id": 218, "geometry": {"type": "Point", "coordinates": [103.846290276822, 1.28563915021246]}, "properties": {"FID": 218, "POSTALCODE": "58289", "TOTALROOMS": "367", "ADDRESS": "3 Upper Pickering Street", "NAME": "PARKROYAL on Pickering"}}, {"type": "Feature", "id": 219, "geometry": {"type": "Point", "coordinates": [103.770167552315, 1.29207833923421]}, "properties": {"FID": 219, "POSTALCODE": "118741", "TOTALROOMS": "54", "ADDRESS": "404 Pasir Panjang Road", "NAME": "Pasir Panjang Inn"}}, {"type": "Feature", "id": 220, "geometry": {"type": "Point", "coordinates": [103.79589824058, 1.33421959656852]}, "properties": {"FID": 220, "POSTALCODE": "287992", "TOTALROOMS": "40", "ADDRESS": "100 TURF CLUB ROAD, # 05-01", "NAME": "Pegasus Hotel"}}, {"type": "Feature", "id": 221, "geometry": {"type": "Point", "coordinates": [103.849820402234, 1.29194593773881]}, "properties": {"FID": 221, "POSTALCODE": "179805", "TOTALROOMS": "591", "ADDRESS": "5 Coleman Street", "NAME": "Peninsula.Excelsior Hotel"}}, {"type": "Feature", "id": 222, "geometry": {"type": "Point", "coordinates": [103.853597875118, 1.31119260956985]}, "properties": {"FID": 222, "POSTALCODE": "219894", "TOTALROOMS": "48", "ADDRESS": "33 Birch Road", "NAME": "Penta Hotel"}}, {"type": "Feature", "id": 223, "geometry": {"type": "Point", "coordinates": [103.853212953666, 1.30477759398909]}, "properties": {"FID": 223, "POSTALCODE": "208133", "TOTALROOMS": "34", "ADDRESS": "12 Perak Road", "NAME": "Perak Hotel"}}, {"type": "Feature", "id": 224, "geometry": {"type": "Point", "coordinates": [103.855722992112, 1.2967817930066]}, "properties": {"FID": 224, "POSTALCODE": "188933", "TOTALROOMS": "80", "ADDRESS": "23 MIDDLE ROAD", "NAME": "Populous Hotel"}}, {"type": "Feature", "id": 225, "geometry": {"type": "Point", "coordinates": [103.8442855321, 1.2842397770743]}, "properties": {"FID": 225, "POSTALCODE": "59526", "TOTALROOMS": "138", "ADDRESS": "48 Mosque Street", "NAME": "Porcelain Hotel"}}, {"type": "Feature", "id": 226, "geometry": {"type": "Point", "coordinates": [103.947059213317, 1.33160196932239]}, "properties": {"FID": 226, "POSTALCODE": "469546", "TOTALROOMS": "12", "ADDRESS": "357A BEDOK ROAD, # 1-", "NAME": "Q Loft Hotels@Bedok"}}, {"type": "Feature", "id": 227, "geometry": {"type": "Point", "coordinates": [103.852519734392, 1.3200518735998]}, "properties": {"FID": 227, "POSTALCODE": "329926", "TOTALROOMS": "240", "ADDRESS": "201 Balestier Road", "NAME": "Quality Hotel Marlow"}}, {"type": "Feature", "id": 228, "geometry": {"type": "Point", "coordinates": [103.854068348619, 1.29509740790573]}, "properties": {"FID": 228, "POSTALCODE": "189673", "TOTALROOMS": "103", "ADDRESS": "1 Beach Road", "NAME": "Raffles Hotel Singapore"}}, {"type": "Feature", "id": 229, "geometry": {"type": "Point", "coordinates": [103.977931027589, 1.38859258787594]}, "properties": {"FID": 229, "POSTALCODE": "509673", "TOTALROOMS": "50", "ADDRESS": "33 Hendon Road", "NAME": "Raintr33 Hotel Singapore"}}, {"type": "Feature", "id": 230, "geometry": {"type": "Point", "coordinates": [103.846374265096, 1.32710813803978]}, "properties": {"FID": 230, "POSTALCODE": "329983", "TOTALROOMS": "382", "ADDRESS": "16 Ah Hood Road", "NAME": "Ramada Singapore at Zhongshan Park"}}, {"type": "Feature", "id": 231, "geometry": {"type": "Point", "coordinates": [103.881861953134, 1.31116646248922]}, "properties": {"FID": 231, "POSTALCODE": "398691", "TOTALROOMS": "42", "ADDRESS": "34 LORONG 22 GEYLANG LEMON GRASS HOTEL", "NAME": "Reddoorz @ Aljunied"}}, {"type": "Feature", "id": 232, "geometry": {"type": "Point", "coordinates": [103.912040449315, 1.30869697003704]}, "properties": {"FID": 232, "POSTALCODE": "428996", "TOTALROOMS": "62", "ADDRESS": "400 EAST COAST ROAD GARDEN TERRACE HOTEL", "NAME": "RedDoorz near Marine Parade Central"}}, {"type": "Feature", "id": 233, "geometry": {"type": "Point", "coordinates": [103.875894131756, 1.31325649018959]}, "properties": {"FID": 233, "POSTALCODE": "387416", "TOTALROOMS": "46", "ADDRESS": "56 Sims Avenue", "NAME": "Regin Hotel"}}, {"type": "Feature", "id": 234, "geometry": {"type": "Point", "coordinates": [103.826031946844, 1.31283861973218]}, "properties": {"FID": 234, "POSTALCODE": "258352", "TOTALROOMS": "151", "ADDRESS": "30 ORANGE GROVE ROAD RELC BUILDING", "NAME": "RELC International Hotel"}}, {"type": "Feature", "id": 235, "geometry": {"type": "Point", "coordinates": [103.849316104692, 1.29858298110914]}, "properties": {"FID": 235, "POSTALCODE": "189559", "TOTALROOMS": "298", "ADDRESS": "9 Bras Basah Road", "NAME": "Rendezvous Hotel Singapore"}}, {"type": "Feature", "id": 236, "geometry": {"type": "Point", "coordinates": [103.881497892824, 1.31187964951974]}, "properties": {"FID": 236, "POSTALCODE": "398741", "TOTALROOMS": "77", "ADDRESS": "23 Lorong 20 Geylang", "NAME": "Hotel 81 - Lucky"}}, {"type": "Feature", "id": 237, "geometry": {"type": "Point", "coordinates": [103.877277736095, 1.31119117262645]}, "properties": {"FID": 237, "POSTALCODE": "399090", "TOTALROOMS": "182", "ADDRESS": "21 Lorong 8 Geylang", "NAME": "Hotel 81 - Orchid"}}, {"type": "Feature", "id": 238, "geometry": {"type": "Point", "coordinates": [103.834966689751, 1.28336485152126]}, "properties": {"FID": 238, "POSTALCODE": "169753", "TOTALROOMS": "74", "ADDRESS": "1 Eng Hoon Street", "NAME": "Hotel 81 - Osaka"}}, {"type": "Feature", "id": 239, "geometry": {"type": "Point", "coordinates": [103.880119075052, 1.3117914144008]}, "properties": {"FID": 239, "POSTALCODE": "398867", "TOTALROOMS": "192", "ADDRESS": "25 Lorong 16 Geylang", "NAME": "Hotel 81 - Palace"}}, {"type": "Feature", "id": 240, "geometry": {"type": "Point", "coordinates": [103.878632370124, 1.310989059052]}, "properties": {"FID": 240, "POSTALCODE": "399001", "TOTALROOMS": "133", "ADDRESS": "21 Lorong 12 Geylang", "NAME": "Hotel 81 - Princess"}}, {"type": "Feature", "id": 241, "geometry": {"type": "Point", "coordinates": [103.853983381685, 1.30375425566185]}, "properties": {"FID": 241, "POSTALCODE": "208785", "TOTALROOMS": "87", "ADDRESS": "5 Jalan Besar", "NAME": "Hotel 81 - Rochor"}}, {"type": "Feature", "id": 242, "geometry": {"type": "Point", "coordinates": [103.900510377223, 1.31229187621632]}, "properties": {"FID": 242, "POSTALCODE": "427452", "TOTALROOMS": "75", "ADDRESS": "181 Joo Chiat Road", "NAME": "Hotel 81 - Sakura"}}, {"type": "Feature", "id": 243, "geometry": {"type": "Point", "coordinates": [103.849884119668, 1.3032844080623]}, "properties": {"FID": 243, "POSTALCODE": "188318", "TOTALROOMS": "81", "ADDRESS": "161 Selegie Road", "NAME": "Hotel 81 - Selegie"}}, {"type": "Feature", "id": 244, "geometry": {"type": "Point", "coordinates": [103.878270055099, 1.31368276121088]}, "properties": {"FID": 244, "POSTALCODE": "388619", "TOTALROOMS": "32", "ADDRESS": "22 Lorong 15 Geylang", "NAME": "Hotel 81 - Spring"}}, {"type": "Feature", "id": 245, "geometry": {"type": "Point", "coordinates": [103.880860527146, 1.31160601739371]}, "properties": {"FID": 245, "POSTALCODE": "398828", "TOTALROOMS": "207", "ADDRESS": "31 Lorong 18 Geylang", "NAME": "Hotel 81 - Star"}}, {"type": "Feature", "id": 246, "geometry": {"type": "Point", "coordinates": [103.89742052523, 1.3156883814062]}, "properties": {"FID": 246, "POSTALCODE": "424780", "TOTALROOMS": "116", "ADDRESS": "1 Onan Road", "NAME": "Hotel 81 - Tristar"}}, {"type": "Feature", "id": 247, "geometry": {"type": "Point", "coordinates": [103.862164058474, 1.31106785567123]}, "properties": {"FID": 247, "POSTALCODE": "338722", "TOTALROOMS": "49", "ADDRESS": "97 Lavender Street", "NAME": "Hotel 81 - Violet"}}, {"type": "Feature", "id": 248, "geometry": {"type": "Point", "coordinates": [103.87773674743, 1.31192206368227]}, "properties": {"FID": 248, "POSTALCODE": "399035", "TOTALROOMS": "25", "ADDRESS": "1 Lorong 10 Geylang", "NAME": "Hotel Ascendere"}}, {"type": "Feature", "id": 249, "geometry": {"type": "Point", "coordinates": [103.850108244817, 1.29918671268279]}, "properties": {"FID": 249, "POSTALCODE": "189626", "TOTALROOMS": "84", "ADDRESS": "47 Bencoolen Street", "NAME": "Hotel Bencoolen"}}, {"type": "Feature", "id": 250, "geometry": {"type": "Point", "coordinates": [103.847672310352, 1.28709360295761]}, "properties": {"FID": 250, "POSTALCODE": "59685", "TOTALROOMS": "33", "ADDRESS": "47 Hongkong Street", "NAME": "Hotel Bencoolen @ Hong Kong Street"}}, {"type": "Feature", "id": 251, "geometry": {"type": "Point", "coordinates": [103.860266739763, 1.30571323879591]}, "properties": {"FID": 251, "POSTALCODE": "199020", "TOTALROOMS": "1500", "ADDRESS": "500 Jalan Sultan", "NAME": "Hotel Boss"}}, {"type": "Feature", "id": 252, "geometry": {"type": "Point", "coordinates": [103.84193193959, 1.30145986404496]}, "properties": {"FID": 252, "POSTALCODE": "229635", "TOTALROOMS": "488", "ADDRESS": "28 Cavenagh Road", "NAME": "Hotel Chancellor @ Orchard"}}, {"type": "Feature", "id": 253, "geometry": {"type": "Point", "coordinates": [103.897717493043, 1.31564262645336]}, "properties": {"FID": 253, "POSTALCODE": "427353", "TOTALROOMS": "75", "ADDRESS": "12 JOO CHIAT ROAD", "NAME": "HOTEL CLASSIC"}}, {"type": "Feature", "id": 254, "geometry": {"type": "Point", "coordinates": [103.861729306273, 1.30201281200245]}, "properties": {"FID": 254, "POSTALCODE": "198965", "TOTALROOMS": "88", "ADDRESS": "33 Jalan Sultan", "NAME": "Hotel Clover 33 Jalan Sultan"}}, {"type": "Feature", "id": 255, "geometry": {"type": "Point", "coordinates": [103.847840905405, 1.28743139312749]}, "properties": {"FID": 255, "POSTALCODE": "59648", "TOTALROOMS": "55", "ADDRESS": "5 Hongkong Street", "NAME": "Hotel Clover 5 Hongkong Street"}}, {"type": "Feature", "id": 256, "geometry": {"type": "Point", "coordinates": [103.847711568759, 1.28746375746577]}, "properties": {"FID": 256, "POSTALCODE": "59650", "TOTALROOMS": "27", "ADDRESS": "7 HONGKONG STREET", "NAME": "Hotel Clover 7 Hongkong Street"}}, {"type": "Feature", "id": 257, "geometry": {"type": "Point", "coordinates": [103.85958419402, 1.30367090665788]}, "properties": {"FID": 257, "POSTALCODE": "198737", "TOTALROOMS": "35", "ADDRESS": "769 North Bridge Road", "NAME": "Hotel Clover 769 North Bridge Road"}}, {"type": "Feature", "id": 258, "geometry": {"type": "Point", "coordinates": [103.848141342063, 1.2875416560752]}, "properties": {"FID": 258, "POSTALCODE": "58689", "TOTALROOMS": "44", "ADDRESS": "58 South Bridge Road", "NAME": "Hotel Clover The Arts"}}, {"type": "Feature", "id": 259, "geometry": {"type": "Point", "coordinates": [103.881864227842, 1.31100479464787]}, "properties": {"FID": 259, "POSTALCODE": "398693", "TOTALROOMS": "49", "ADDRESS": "36 Lorong 22 Geylang", "NAME": "Hotel Compass"}}, {"type": "Feature", "id": 260, "geometry": {"type": "Point", "coordinates": [103.847855838942, 1.28834728403231]}, "properties": {"FID": 260, "POSTALCODE": "59905", "TOTALROOMS": "22", "ADDRESS": "16 Carpenter Street", "NAME": "Hotel Conforto"}}, {"type": "Feature", "id": 261, "geometry": {"type": "Point", "coordinates": [103.845362062775, 1.29581267692485]}, "properties": {"FID": 261, "POSTALCODE": "178881", "TOTALROOMS": "86", "ADDRESS": "11 Canning Walk", "NAME": "Hotel Fort Canning"}}, {"type": "Feature", "id": 262, "geometry": {"type": "Point", "coordinates": [103.882676691231, 1.31170564569131]}, "properties": {"FID": 262, "POSTALCODE": "399541", "TOTALROOMS": "30", "ADDRESS": "22 Jalan Molek", "NAME": "Hotel Fuji"}}, {"type": "Feature", "id": 263, "geometry": {"type": "Point", "coordinates": [103.851506471784, 1.30091639822015]}, "properties": {"FID": 263, "POSTALCODE": "188980", "TOTALROOMS": "308", "ADDRESS": "200 MIDDLE ROAD BIG HOTEL", "NAME": "Hotel G Singapore"}}, {"type": "Feature", "id": 264, "geometry": {"type": "Point", "coordinates": [103.841767571702, 1.30129428264661]}, "properties": {"FID": 264, "POSTALCODE": "229617", "TOTALROOMS": "263", "ADDRESS": "22 Cavenagh Road", "NAME": "Hotel Grand Central"}}, {"type": "Feature", "id": 265, "geometry": {"type": "Point", "coordinates": [103.852608378947, 1.29729436030129]}, "properties": {"FID": 265, "POSTALCODE": "188018", "TOTALROOMS": "240", "ADDRESS": "101 Victoria Street", "NAME": "Hotel Grand Pacific"}}, {"type": "Feature", "id": 266, "geometry": {"type": "Point", "coordinates": [103.839224075208, 1.30050955540172]}, "properties": {"FID": 266, "POSTALCODE": "238858", "TOTALROOMS": "499", "ADDRESS": "277 Orchard Road , # 10-01", "NAME": "Hotel Jen Orchardgateway Singapore"}}, {"type": "Feature", "id": 267, "geometry": {"type": "Point", "coordinates": [103.823912362386, 1.3042705390701]}, "properties": {"FID": 267, "POSTALCODE": "249716", "TOTALROOMS": "565", "ADDRESS": "1A Cuscaden Road", "NAME": "Hotel Jen Tanglin Singapore"}}, {"type": "Feature", "id": 268, "geometry": {"type": "Point", "coordinates": [103.855405315986, 1.29652179546768]}, "properties": {"FID": 268, "POSTALCODE": "188593", "TOTALROOMS": "32", "ADDRESS": "14 Purvis Street", "NAME": "Hotel Kai"}}, {"type": "Feature", "id": 269, "geometry": {"type": "Point", "coordinates": [103.85002055003, 1.29898583485992]}, "properties": {"FID": 269, "POSTALCODE": "189623", "TOTALROOMS": "342", "ADDRESS": "41 BENCOOLEN STREET, # 01-01", "NAME": "Hotel Mi"}}, {"type": "Feature", "id": 270, "geometry": {"type": "Point", "coordinates": [103.820219417862, 1.25493344657608]}, "properties": {"FID": 270, "POSTALCODE": "98269", "TOTALROOMS": "464", "ADDRESS": "8 Sentosa Gateway", "NAME": "Hotel Michael"}}, {"type": "Feature", "id": 271, "geometry": {"type": "Point", "coordinates": [103.837414952528, 1.28821991004077]}, "properties": {"FID": 271, "POSTALCODE": "169631", "TOTALROOMS": "342", "ADDRESS": "401 Havelock Road", "NAME": "Hotel Miramar Singapore"}}, {"type": "Feature", "id": 272, "geometry": {"type": "Point", "coordinates": [103.844389455511, 1.28385267498543]}, "properties": {"FID": 272, "POSTALCODE": "59498", "TOTALROOMS": "46", "ADDRESS": "18 MOSQUE STREET, # 01-04", "NAME": "Hotel Mono"}}, {"type": "Feature", "id": 273, "geometry": {"type": "Point", "coordinates": [103.858275293359, 1.30275141538487]}, "properties": {"FID": 273, "POSTALCODE": "199143", "TOTALROOMS": "43", "ADDRESS": "11 Jalan Pinang", "NAME": "Hotel Nuve"}}, {"type": "Feature", "id": 274, "geometry": {"type": "Point", "coordinates": [103.855342378323, 1.29651405827415]}, "properties": {"FID": 274, "POSTALCODE": "188592", "TOTALROOMS": "19", "ADDRESS": "13 PURVIS STREET ADONIS HOTEL", "NAME": "Hotel NuVe Heritage"}}, {"type": "Feature", "id": 275, "geometry": {"type": "Point", "coordinates": [103.85880512199, 1.30732090340061]}, "properties": {"FID": 275, "POSTALCODE": "208582", "TOTALROOMS": "62", "ADDRESS": "3 KING GEORGE'S AVENUE", "NAME": "Hotel NuVe Urbane"}}, {"type": "Feature", "id": 276, "geometry": {"type": "Point", "coordinates": [103.838407282029, 1.28541004109637]}, "properties": {"FID": 276, "POSTALCODE": "169879", "TOTALROOMS": "140", "ADDRESS": "175A Chin Swee Road", "NAME": "Hotel Re! @ Pearl's Hill"}}, {"type": "Feature", "id": 277, "geometry": {"type": "Point", "coordinates": [103.841859485178, 1.31683061992058]}, "properties": {"FID": 277, "POSTALCODE": "307964", "TOTALROOMS": "362", "ADDRESS": "36 Newton Road", "NAME": "Hotel Royal"}}, {"type": "Feature", "id": 278, "geometry": {"type": "Point", "coordinates": [103.85213309311, 1.29752626473221]}, "properties": {"FID": 278, "POSTALCODE": "188553", "TOTALROOMS": "231", "ADDRESS": "12 Queen Street", "NAME": "Hotel Royal @ Queens"}}, {"type": "Feature", "id": 279, "geometry": {"type": "Point", "coordinates": [103.861821614888, 1.31087906355524]}, "properties": {"FID": 279, "POSTALCODE": "209854", "TOTALROOMS": "32", "ADDRESS": "26 CAVAN ROAD HOTEL SNOW", "NAME": "Hotel Snow Lavender"}}, {"type": "Feature", "id": 280, "geometry": {"type": "Point", "coordinates": [103.842424742855, 1.30133936745549]}, "properties": {"FID": 280, "POSTALCODE": "228750", "TOTALROOMS": "86", "ADDRESS": "15 Kramat Road", "NAME": "Hotel Supreme"}}, {"type": "Feature", "id": 281, "geometry": {"type": "Point", "coordinates": [103.887584342106, 1.31396448723502]}, "properties": {"FID": 281, "POSTALCODE": "389525", "TOTALROOMS": "10", "ADDRESS": "586A Geylang Road", "NAME": "Hup Hoe Hotel"}}, {"type": "Feature", "id": 282, "geometry": {"type": "Point", "coordinates": [103.845545056163, 1.32614786536992]}, "properties": {"FID": 282, "POSTALCODE": "329543", "TOTALROOMS": "241", "ADDRESS": "6 Irrawaddy Road", "NAME": "Ibis Singapore Novena"}}, {"type": "Feature", "id": 283, "geometry": {"type": "Point", "coordinates": [103.852422675638, 1.30096318053124]}, "properties": {"FID": 283, "POSTALCODE": "189657", "TOTALROOMS": "538", "ADDRESS": "170 Bencoolen Street", "NAME": "Ibis Singapore on Bencoolen"}}, {"type": "Feature", "id": 284, "geometry": {"type": "Point", "coordinates": [103.87929450978, 1.33177055027874]}, "properties": {"FID": 284, "POSTALCODE": "368125", "TOTALROOMS": "298", "ADDRESS": "401 Macpherson Road", "NAME": "ibis Styles Singapore on Macpherson"}}, {"type": "Feature", "id": 285, "geometry": {"type": "Point", "coordinates": [103.844450633221, 1.29766081029049]}, "properties": {"FID": 285, "POSTALCODE": "238485", "TOTALROOMS": "70", "ADDRESS": "11 Penang Lane", "NAME": "Innotel Hotel"}}, {"type": "Feature", "id": 286, "geometry": {"type": "Point", "coordinates": [103.854866957406, 1.29846966254644]}, "properties": {"FID": 286, "POSTALCODE": "188966", "TOTALROOMS": "403", "ADDRESS": "80 Middle Road", "NAME": "InterContinental Singapore"}}, {"type": "Feature", "id": 287, "geometry": {"type": "Point", "coordinates": [103.838551715151, 1.28984103083192]}, "properties": {"FID": 287, "POSTALCODE": "238909", "TOTALROOMS": "225", "ADDRESS": "1 NANSON ROAD", "NAME": "InterContinental Singapore Robertson Quay"}}, {"type": "Feature", "id": 288, "geometry": {"type": "Point", "coordinates": [103.8459241052, 1.28298236403976]}, "properties": {"FID": 288, "POSTALCODE": "58764", "TOTALROOMS": "18", "ADDRESS": "215A South Bridge Road", "NAME": "iStay.inn"}}, {"type": "Feature", "id": 289, "geometry": {"type": "Point", "coordinates": [103.858520500933, 1.30769756693621]}, "properties": {"FID": 289, "POSTALCODE": "207606", "TOTALROOMS": "98", "ADDRESS": "8 Townshend Road", "NAME": "J8 Hotel"}}, {"type": "Feature", "id": 290, "geometry": {"type": "Point", "coordinates": [103.882775883057, 1.31171184042591]}, "properties": {"FID": 290, "POSTALCODE": "399535", "TOTALROOMS": "36", "ADDRESS": "18 Jalan Molek", "NAME": "Jade Hotel"}}, {"type": "Feature", "id": 291, "geometry": {"type": "Point", "coordinates": [103.861412049707, 1.30202392660266]}, "properties": {"FID": 291, "POSTALCODE": "199903", "TOTALROOMS": "51", "ADDRESS": "10 ALIWAL STREET 5FOOTWAY.INN PROJECT BUGIS", "NAME": "Jamilla Boutique Inn"}}, {"type": "Feature", "id": 292, "geometry": {"type": "Point", "coordinates": [103.847932687956, 1.28778718149371]}, "properties": {"FID": 292, "POSTALCODE": "59921", "TOTALROOMS": "40", "ADDRESS": "42 Carpenter Street", "NAME": "Jayleen 1918 Hotel"}}, {"type": "Feature", "id": 293, "geometry": {"type": "Point", "coordinates": [103.847502561655, 1.28871525762452]}, "properties": {"FID": 293, "POSTALCODE": "59390", "TOTALROOMS": "20", "ADDRESS": "25 New Bridge Road", "NAME": "Jayleen Clarke Quay Hotel"}}, {"type": "Feature", "id": 294, "geometry": {"type": "Point", "coordinates": [103.877460162774, 1.31158587926193]}, "properties": {"FID": 294, "POSTALCODE": "399041", "TOTALROOMS": "42", "ADDRESS": "8 LORONG 10 GEYLANG", "NAME": "JH HOTEL"}}, {"type": "Feature", "id": 295, "geometry": {"type": "Point", "coordinates": [103.87880672963, 1.31022726539011]}, "properties": {"FID": 295, "POSTALCODE": "399007", "TOTALROOMS": "33", "ADDRESS": "33 Lorong 12 Geylang", "NAME": "Jin Dong Hotel"}}, {"type": "Feature", "id": 296, "geometry": {"type": "Point", "coordinates": [103.873959993898, 1.31118302100653]}, "properties": {"FID": 296, "POSTALCODE": "389226", "TOTALROOMS": "17", "ADDRESS": "135 Geylang Road", "NAME": "Joyfor Singapore"}}, {"type": "Feature", "id": 297, "geometry": {"type": "Point", "coordinates": [103.855516057824, 1.29465291475618]}, "properties": {"FID": 297, "POSTALCODE": "189763", "TOTALROOMS": "634", "ADDRESS": "30 Beach Road", "NAME": "JW Marriott Hotel Singapore South Beach"}}, {"type": "Feature", "id": 298, "geometry": {"type": "Point", "coordinates": [103.876502274339, 1.30999413412306]}, "properties": {"FID": 298, "POSTALCODE": "399199", "TOTALROOMS": "56", "ADDRESS": "44 LORONG 6 GEYLANG", "NAME": "K Hotel"}}, {"type": "Feature", "id": 299, "geometry": {"type": "Point", "coordinates": [103.877512891596, 1.31128856941731]}, "properties": {"FID": 299, "POSTALCODE": "399045", "TOTALROOMS": "28", "ADDRESS": "12 LORONG 10 GEYLANG", "NAME": "K HOTEL 12"}}, {"type": "Feature", "id": 300, "geometry": {"type": "Point", "coordinates": [103.877541296405, 1.31123084966036]}, "properties": {"FID": 300, "POSTALCODE": "399047", "TOTALROOMS": "45", "ADDRESS": "14 LORONG 10 GEYLANG", "NAME": "K HOTEL 14"}}, {"type": "Feature", "id": 301, "geometry": {"type": "Point", "coordinates": [103.786403400284, 1.28061806871039]}, "properties": {"FID": 301, "POSTALCODE": "118146", "TOTALROOMS": "24", "ADDRESS": "15 SOUTH BUONA VISTA ROAD", "NAME": "K2 Guesthouse"}}, {"type": "Feature", "id": 302, "geometry": {"type": "Point", "coordinates": [103.859699508053, 1.31322433139894]}, "properties": {"FID": 302, "POSTALCODE": "209001", "TOTALROOMS": "70", "ADDRESS": "383 Jalan Besar", "NAME": "Kam Leng Hotel"}}, {"type": "Feature", "id": 303, "geometry": {"type": "Point", "coordinates": [103.859682778597, 1.30078460943314]}, "properties": {"FID": 303, "POSTALCODE": "199745", "TOTALROOMS": "6", "ADDRESS": "48 ARAB STREET SHOPHOUSE THE SOCIAL HOSTEL", "NAME": "KAMPONG @ ARAB"}}, {"type": "Feature", "id": 304, "geometry": {"type": "Point", "coordinates": [103.876240341489, 1.31143554458721]}, "properties": {"FID": 304, "POSTALCODE": "399166", "TOTALROOMS": "43", "ADDRESS": "4 Lorong 6 Geylang", "NAME": "Kim Tian (Star) Hotel"}}, {"type": "Feature", "id": 305, "geometry": {"type": "Point", "coordinates": [103.882458730814, 1.31205759516275]}, "properties": {"FID": 305, "POSTALCODE": "398678", "TOTALROOMS": "47", "ADDRESS": "21 Lorong 22 Geylang", "NAME": "Kim Tian Hotel"}}, {"type": "Feature", "id": 306, "geometry": {"type": "Point", "coordinates": [103.876202654456, 1.31016164297443]}, "properties": {"FID": 306, "POSTALCODE": "399281", "TOTALROOMS": "48", "ADDRESS": "29 Lorong 4 Geylang", "NAME": "Kim Tian Hotel (Han)"}}, {"type": "Feature", "id": 307, "geometry": {"type": "Point", "coordinates": [103.842089339482, 1.27377179666286]}, "properties": {"FID": 307, "POSTALCODE": "89316", "TOTALROOMS": "17", "ADDRESS": "15 HOE CHIANG ROAD TOWER FIFTEEN", "NAME": "Klapstar Boutique Hotel"}}, {"type": "Feature", "id": 308, "geometry": {"type": "Point", "coordinates": [103.877802896884, 1.31126461939249]}, "properties": {"FID": 308, "POSTALCODE": "399050", "TOTALROOMS": "35", "ADDRESS": "17 Lorong 10 Geylang", "NAME": "La Mode (Sophia)"}}, {"type": "Feature", "id": 309, "geometry": {"type": "Point", "coordinates": [103.883130633527, 1.31301909927914]}, "properties": {"FID": 309, "POSTALCODE": "389396", "TOTALROOMS": "15", "ADDRESS": "432  Geylang Road", "NAME": "Lai Ming Hotel"}}, {"type": "Feature", "id": 310, "geometry": {"type": "Point", "coordinates": [103.8828777623, 1.31285244173843]}, "properties": {"FID": 310, "POSTALCODE": "389395", "TOTALROOMS": "54", "ADDRESS": "424 Geylang Road", "NAME": "Lai Ming Hotel Cosmoland"}}, {"type": "Feature", "id": 311, "geometry": {"type": "Point", "coordinates": [103.819557563438, 1.25329366010893]}, "properties": {"FID": 311, "POSTALCODE": "98679", "TOTALROOMS": "191", "ADDRESS": "23 Beach View", "NAME": "Le Meridien Singapore, Sentosa"}}, {"type": "Feature", "id": 312, "geometry": {"type": "Point", "coordinates": [103.877164392253, 1.31181054761366]}, "properties": {"FID": 312, "POSTALCODE": "399073", "TOTALROOMS": "41", "ADDRESS": "1 LORONG 8 GEYLANG", "NAME": "LEX HOTEL (LORONG 8)"}}, {"type": "Feature", "id": 313, "geometry": {"type": "Point", "coordinates": [103.834290657294, 1.28487239743258]}, "properties": {"FID": 313, "POSTALCODE": "168733", "TOTALROOMS": "274", "ADDRESS": "50 Tiong Bahru Road", "NAME": "Link Hotel"}}, {"type": "Feature", "id": 314, "geometry": {"type": "Point", "coordinates": [103.840365853895, 1.29726359274055]}, "properties": {"FID": 314, "POSTALCODE": "239091", "TOTALROOMS": "34", "ADDRESS": "2 Lloyd Road", "NAME": "Lloyd's Inn"}}, {"type": "Feature", "id": 315, "geometry": {"type": "Point", "coordinates": [103.880204168027, 1.31152284369824]}, "properties": {"FID": 315, "POSTALCODE": "398877", "TOTALROOMS": "22", "ADDRESS": "41 Lorong 16 Geylang", "NAME": "Lodge 41"}}, {"type": "Feature", "id": 316, "geometry": {"type": "Point", "coordinates": [103.845058261394, 1.2736878678605]}, "properties": {"FID": 316, "POSTALCODE": "79908", "TOTALROOMS": "415", "ADDRESS": "81 Anson Road", "NAME": "M Hotel Singapore"}}, {"type": "Feature", "id": 317, "geometry": {"type": "Point", "coordinates": [103.837220921136, 1.29086700804163]}, "properties": {"FID": 317, "POSTALCODE": "238259", "TOTALROOMS": "293", "ADDRESS": "90 Robertson Quay", "NAME": "M Social Singapore"}}, {"type": "Feature", "id": 318, "geometry": {"type": "Point", "coordinates": [103.906356988074, 1.31352191764378]}, "properties": {"FID": 318, "POSTALCODE": "423988", "TOTALROOMS": "29", "ADDRESS": "97 Still Road", "NAME": "Malacca Hotel"}}, {"type": "Feature", "id": 319, "geometry": {"type": "Point", "coordinates": [103.836340957327, 1.30206451448736]}, "properties": {"FID": 319, "POSTALCODE": "238867", "TOTALROOMS": "1077", "ADDRESS": "333 Orchard Road", "NAME": "Mandarin Orchard Singapore"}}, {"type": "Feature", "id": 320, "geometry": {"type": "Point", "coordinates": [103.858323980204, 1.29066059371112]}, "properties": {"FID": 320, "POSTALCODE": "39797", "TOTALROOMS": "527", "ADDRESS": "5 Raffles Avenue Marina Square", "NAME": "Mandarin Oriental, Singapore"}}, {"type": "Feature", "id": 321, "geometry": {"type": "Point", "coordinates": [103.858308383216, 1.28233336907092]}, "properties": {"FID": 321, "POSTALCODE": "18956", "TOTALROOMS": "2561", "ADDRESS": "1 Bayfront Avenue", "NAME": "Marina Bay Sands Singapore"}}, {"type": "Feature", "id": 322, "geometry": {"type": "Point", "coordinates": [103.857007334718, 1.29145527172757]}, "properties": {"FID": 322, "POSTALCODE": "39594", "TOTALROOMS": "575", "ADDRESS": "6 Raffles Boulevard Marina Square", "NAME": "Marina Mandarin"}}, {"type": "Feature", "id": 323, "geometry": {"type": "Point", "coordinates": [103.855499653487, 1.30899646405106]}, "properties": {"FID": 323, "POSTALCODE": "209588", "TOTALROOMS": "25", "ADDRESS": "65 Desker Road", "NAME": "Marrison @ Desker"}}, {"type": "Feature", "id": 324, "geometry": {"type": "Point", "coordinates": [103.857087528381, 1.29789093139587]}, "properties": {"FID": 324, "POSTALCODE": "189704", "TOTALROOMS": "96", "ADDRESS": "103 Beach Road", "NAME": "Marrison Hotel"}}, {"type": "Feature", "id": 325, "geometry": {"type": "Point", "coordinates": [103.854120528185, 1.30392258935679]}, "properties": {"FID": 325, "POSTALCODE": "208786", "TOTALROOMS": "22", "ADDRESS": "9 Jalan Besar", "NAME": "Mayo Inn"}}, {"type": "Feature", "id": 326, "geometry": {"type": "Point", "coordinates": [103.880838670251, 1.3118604317971]}, "properties": {"FID": 326, "POSTALCODE": "398806", "TOTALROOMS": "42", "ADDRESS": "25 Lorong 18 Geylang", "NAME": "Diamond Hotel"}}, {"type": "Feature", "id": 327, "geometry": {"type": "Point", "coordinates": [103.840007594429, 1.2796266924511]}, "properties": {"FID": 327, "POSTALCODE": "88765", "TOTALROOMS": "285", "ADDRESS": "333 New Bridge Road", "NAME": "Dorsett Singapore"}}, {"type": "Feature", "id": 328, "geometry": {"type": "Point", "coordinates": [103.847645117244, 1.27987746130059]}, "properties": {"FID": 328, "POSTALCODE": "68722", "TOTALROOMS": "18", "ADDRESS": "3 STANLEY STREET", "NAME": "EIGHTEEN BY THREE CABINS"}}, {"type": "Feature", "id": 329, "geometry": {"type": "Point", "coordinates": [103.816896677934, 1.25767113068459]}, "properties": {"FID": 329, "POSTALCODE": "98133", "TOTALROOMS": "183", "ADDRESS": "16 Sentosa Gateway", "NAME": "Equarius Hotel"}}, {"type": "Feature", "id": 330, "geometry": {"type": "Point", "coordinates": [103.853331833491, 1.29407645384511]}, "properties": {"FID": 330, "POSTALCODE": "189560", "TOTALROOMS": "769", "ADDRESS": "80 Bras Basah Road", "NAME": "Fairmont, Singapore"}}, {"type": "Feature", "id": 331, "geometry": {"type": "Point", "coordinates": [103.809797895221, 1.25780205155099]}, "properties": {"FID": 331, "POSTALCODE": "98970", "TOTALROOMS": "454", "ADDRESS": "101 Siloso Road Sentosa", "NAME": "Shangri-La's Rasa Sentosa Resort & Spa, Singapore"}}, {"type": "Feature", "id": 332, "geometry": {"type": "Point", "coordinates": [103.836462151934, 1.31195053691674]}, "properties": {"FID": 332, "POSTALCODE": "228230", "TOTALROOMS": "420", "ADDRESS": "39 Scotts Road", "NAME": "Sheraton Towers Singapore Hotel"}}, {"type": "Feature", "id": 333, "geometry": {"type": "Point", "coordinates": [103.814500423897, 1.254987277223]}, "properties": {"FID": 333, "POSTALCODE": "99538", "TOTALROOMS": "195", "ADDRESS": "51 Imbiah Walk", "NAME": "Siloso Beach Resort"}}, {"type": "Feature", "id": 334, "geometry": {"type": "Point", "coordinates": [103.891452445235, 1.30076130066845]}, "properties": {"FID": 334, "POSTALCODE": "437761", "TOTALROOMS": "41", "ADDRESS": "759 Mountbatten Road", "NAME": "Sing Hoe Hotel"}}, {"type": "Feature", "id": 335, "geometry": {"type": "Point", "coordinates": [103.832882401215, 1.30504624128829]}, "properties": {"FID": 335, "POSTALCODE": "238865", "TOTALROOMS": "392", "ADDRESS": "320 Orchard Road", "NAME": "Singapore Marriott Tang Plaza Hotel"}}, {"type": "Feature", "id": 336, "geometry": {"type": "Point", "coordinates": [103.860729260382, 1.31141628377874]}, "properties": {"FID": 336, "POSTALCODE": "209180", "TOTALROOMS": "9", "ADDRESS": "9 HAMILTON ROAD, # 01-01", "NAME": "Singapore OSS Backpackers Hostel Pte Ltd"}}, {"type": "Feature", "id": 337, "geometry": {"type": "Point", "coordinates": [103.843187861164, 1.27887034636921]}, "properties": {"FID": 337, "POSTALCODE": "89540", "TOTALROOMS": "49", "ADDRESS": "83 Duxton Road", "NAME": "Six Senses Duxton"}}, {"type": "Feature", "id": 338, "geometry": {"type": "Point", "coordinates": [103.84436735559, 1.27915222485493]}, "properties": {"FID": 338, "POSTALCODE": "78857", "TOTALROOMS": "138", "ADDRESS": "2 COOK STREET", "NAME": "Six Senses Maxwell"}}, {"type": "Feature", "id": 339, "geometry": {"type": "Point", "coordinates": [103.854027628751, 1.30473827645305]}, "properties": {"FID": 339, "POSTALCODE": "209356", "TOTALROOMS": "15", "ADDRESS": "28 DUNLOP STREET KAWAN HOSTEL", "NAME": "Snooze Inn @ Dunlop Street"}}, {"type": "Feature", "id": 340, "geometry": {"type": "Point", "coordinates": [103.853723615063, 1.30536818253614]}, "properties": {"FID": 340, "POSTALCODE": "209518", "TOTALROOMS": "23", "ADDRESS": "43 DICKSON ROAD PHIL INN", "NAME": "Snooze Inn Pte Ltd"}}, {"type": "Feature", "id": 341, "geometry": {"type": "Point", "coordinates": [103.84965479553, 1.2799219756292]}, "properties": {"FID": 341, "POSTALCODE": "68876", "TOTALROOMS": "134", "ADDRESS": "35 Robinson Road", "NAME": "SO Sofitel Singapore"}}, {"type": "Feature", "id": 342, "geometry": {"type": "Point", "coordinates": [103.845070111481, 1.2769051687592]}, "properties": {"FID": 342, "POSTALCODE": "78885", "TOTALROOMS": "223", "ADDRESS": "9 WALLICH STREET", "NAME": "Sofitel Singapore City Centre"}}, {"type": "Feature", "id": 343, "geometry": {"type": "Point", "coordinates": [103.82752571322, 1.24506009919405]}, "properties": {"FID": 343, "POSTALCODE": "99891", "TOTALROOMS": "215", "ADDRESS": "2 Bukit Manis Road", "NAME": "Sofitel Singapore Sentosa Resort & Spa"}}, {"type": "Feature", "id": 344, "geometry": {"type": "Point", "coordinates": [103.853135266156, 1.30108679352558]}, "properties": {"FID": 344, "POSTALCODE": "187965", "TOTALROOMS": "51", "ADDRESS": "190 Waterloo Street", "NAME": "South East Asia Hotel"}}, {"type": "Feature", "id": 345, "geometry": {"type": "Point", "coordinates": [103.861714997711, 1.31033156695768]}, "properties": {"FID": 345, "POSTALCODE": "208559", "TOTALROOMS": "8", "ADDRESS": "111J King George's Avenue", "NAME": "Spacepod@Lavender"}}, {"type": "Feature", "id": 346, "geometry": {"type": "Point", "coordinates": [103.826053282041, 1.30566127925016]}, "properties": {"FID": 346, "POSTALCODE": "247911", "TOTALROOMS": "299", "ADDRESS": "29 Tanglin Road", "NAME": "St. Regis Hotel Singapore"}}, {"type": "Feature", "id": 347, "geometry": {"type": "Point", "coordinates": [103.849738231458, 1.29865347181331]}, "properties": {"FID": 347, "POSTALCODE": "189619", "TOTALROOMS": "130", "ADDRESS": "25 Bencoolen Street", "NAME": "Strand Hotel"}}, {"type": "Feature", "id": 348, "geometry": {"type": "Point", "coordinates": [103.839076196784, 1.29077755196887]}, "properties": {"FID": 348, "POSTALCODE": "238910", "TOTALROOMS": "360", "ADDRESS": "3 Nanson Road", "NAME": "Studio M Hotel"}}, {"type": "Feature", "id": 349, "geometry": {"type": "Point", "coordinates": [103.852237536458, 1.30165916476223]}, "properties": {"FID": 349, "POSTALCODE": "189642", "TOTALROOMS": "86", "ADDRESS": "173  Bencoolen Street", "NAME": "Summer View Hotel"}}, {"type": "Feature", "id": 350, "geometry": {"type": "Point", "coordinates": [103.85853187087, 1.30279422724928]}, "properties": {"FID": 350, "POSTALCODE": "199150", "TOTALROOMS": "28", "ADDRESS": "2 Jalan Pinang", "NAME": "Superb Hostel"}}, {"type": "Feature", "id": 351, "geometry": {"type": "Point", "coordinates": [103.845692310903, 1.28821803102993]}, "properties": {"FID": 351, "POSTALCODE": "58281", "TOTALROOMS": "476", "ADDRESS": "20 Merchant Road", "NAME": "Swissotel Merchant Court,Singapore"}}, {"type": "Feature", "id": 352, "geometry": {"type": "Point", "coordinates": [103.853365185559, 1.2932686351555]}, "properties": {"FID": 352, "POSTALCODE": "178882", "TOTALROOMS": "1252", "ADDRESS": "2 Stamford Road", "NAME": "Swissotel The Stamford, Singapore"}}, {"type": "Feature", "id": 353, "geometry": {"type": "Point", "coordinates": [103.856565021583, 1.31026598155834]}, "properties": {"FID": 353, "POSTALCODE": "208538", "TOTALROOMS": "73", "ADDRESS": "163 Kitchener Road", "NAME": "Tai Hoe Hotel"}}, {"type": "Feature", "id": 354, "geometry": {"type": "Point", "coordinates": [103.877081657941, 1.30992260958234]}, "properties": {"FID": 354, "POSTALCODE": "399120", "TOTALROOMS": "38", "ADDRESS": "60 Lorong 8 Geylang", "NAME": "Taipei Hotel (2000)"}}, {"type": "Feature", "id": 355, "geometry": {"type": "Point", "coordinates": [103.879175573673, 1.31219356846745]}, "properties": {"FID": 355, "POSTALCODE": "398913", "TOTALROOMS": "18", "ADDRESS": "1 Lorong 14 Geylang", "NAME": "The Amazing Inn"}}, {"type": "Feature", "id": 356, "geometry": {"type": "Point", "coordinates": [103.850710598505, 1.2941621130079]}, "properties": {"FID": 356, "POSTALCODE": "178906", "TOTALROOMS": "157", "ADDRESS": "15 STAMFORD ROAD", "NAME": "THE CAPITOL KEMPINSKI HOTEL SINGAPORE"}}, {"type": "Feature", "id": 357, "geometry": {"type": "Point", "coordinates": [103.854759800093, 1.31136590956387]}, "properties": {"FID": 357, "POSTALCODE": "218224", "TOTALROOMS": "90", "ADDRESS": "301 Serangoon Road", "NAME": "The Claremont"}}, {"type": "Feature", "id": 358, "geometry": {"type": "Point", "coordinates": [103.852855016506, 1.3047512689441]}, "properties": {"FID": 358, "POSTALCODE": "208413", "TOTALROOMS": "16", "ADDRESS": "16 Madras Street", "NAME": "The Daulat"}}, {"type": "Feature", "id": 359, "geometry": {"type": "Point", "coordinates": [103.835712307977, 1.30802412160934]}, "properties": {"FID": 359, "POSTALCODE": "228518", "TOTALROOMS": "256", "ADDRESS": "24 Mount Elizabeth", "NAME": "The Elizabeth"}}, {"type": "Feature", "id": 360, "geometry": {"type": "Point", "coordinates": [103.901247564712, 1.31149661177166]}, "properties": {"FID": 360, "POSTALCODE": "427485", "TOTALROOMS": "90", "ADDRESS": "219 Joo Chiat Road", "NAME": "The Fragrance Hotel"}}, {"type": "Feature", "id": 361, "geometry": {"type": "Point", "coordinates": [103.853480206795, 1.28396667765965]}, "properties": {"FID": 361, "POSTALCODE": "49326", "TOTALROOMS": "98", "ADDRESS": "80 Collyer Quay", "NAME": "The Fullerton Bay Hotel"}}, {"type": "Feature", "id": 362, "geometry": {"type": "Point", "coordinates": [103.852970356644, 1.28619324330144]}, "properties": {"FID": 362, "POSTALCODE": "49178", "TOTALROOMS": "399", "ADDRESS": "1 Fullerton Square", "NAME": "The Fullerton Hotel"}}, {"type": "Feature", "id": 363, "geometry": {"type": "Point", "coordinates": [103.853009976802, 1.30493595980433]}, "properties": {"FID": 363, "POSTALCODE": "208422", "TOTALROOMS": "29", "ADDRESS": "28 MADRAS STREET", "NAME": "THE GREAT MADRAS"}}, {"type": "Feature", "id": 364, "geometry": {"type": "Point", "coordinates": [103.860315945067, 1.31436251646679]}, "properties": {"FID": 364, "POSTALCODE": "338800", "TOTALROOMS": "12", "ADDRESS": "280A Lavender Street", "NAME": "The Green Kiwi Backpacker Hostel"}}, {"type": "Feature", "id": 365, "geometry": {"type": "Point", "coordinates": [103.858786329223, 1.31571665764369]}, "properties": {"FID": 365, "POSTALCODE": "218223", "TOTALROOMS": "10", "ADDRESS": "624 Serangoon Road", "NAME": "The Hive"}}, {"type": "Feature", "id": 366, "geometry": {"type": "Point", "coordinates": [103.843868486056, 1.28320661609378]}, "properties": {"FID": 366, "POSTALCODE": "58581", "TOTALROOMS": "42", "ADDRESS": "36 Temple Street", "NAME": "The Inn at Temple Street"}}, {"type": "Feature", "id": 367, "geometry": {"type": "Point", "coordinates": [103.841640167688, 1.28103905426658]}, "properties": {"FID": 367, "POSTALCODE": "89165", "TOTALROOMS": "25", "ADDRESS": "69 Keong Saik Road", "NAME": "The Keong Saik Hotel"}}, {"type": "Feature", "id": 368, "geometry": {"type": "Point", "coordinates": [103.85977593931, 1.31379681508826]}, "properties": {"FID": 368, "POSTALCODE": "209012", "TOTALROOMS": "30", "ADDRESS": "407 JALAN BESAR THE NOBLE HOTEL", "NAME": "The Noble Hotel"}}, {"type": "Feature", "id": 369, "geometry": {"type": "Point", "coordinates": [103.819943386161, 1.2522595079566]}, "properties": {"FID": 369, "POSTALCODE": "99951", "TOTALROOMS": "193", "ADDRESS": "10 ARTILLERY AVENUE, # 03-01", "NAME": "The Outpost Hotel at Sentosa"}}, {"type": "Feature", "id": 370, "geometry": {"type": "Point", "coordinates": [103.858804405232, 1.29237290684694]}, "properties": {"FID": 370, "POSTALCODE": "39595", "TOTALROOMS": "790", "ADDRESS": "7 Raffles Boulevard", "NAME": "The Pan Pacific Hotel Singapore"}}, {"type": "Feature", "id": 371, "geometry": {"type": "Point", "coordinates": [103.860546410988, 1.30105229758533]}, "properties": {"FID": 371, "POSTALCODE": "199552", "TOTALROOMS": "15", "ADDRESS": "289 Beach Road  , # 03-01", "NAME": "The Pod"}}, {"type": "Feature", "id": 372, "geometry": {"type": "Point", "coordinates": [103.848312936218, 1.28705508958743]}, "properties": {"FID": 372, "POSTALCODE": "58688", "TOTALROOMS": "41", "ADDRESS": "57 SOUTH BRIDGE ROAD SANTA GRAND HOTEL BOAT QUAY", "NAME": "THE QUAY HOTEL"}}, {"type": "Feature", "id": 373, "geometry": {"type": "Point", "coordinates": [103.835748321515, 1.30775153880563]}, "properties": {"FID": 373, "POSTALCODE": "228517", "TOTALROOMS": "108", "ADDRESS": "22 Mount Elizabeth", "NAME": "The Quincy Hotel"}}, {"type": "Feature", "id": 374, "geometry": {"type": "Point", "coordinates": [103.824897371995, 1.30467322998793]}, "properties": {"FID": 374, "POSTALCODE": "249715", "TOTALROOMS": "440", "ADDRESS": "1 Cuscaden Road", "NAME": "The Regent Singapore"}}, {"type": "Feature", "id": 375, "geometry": {"type": "Point", "coordinates": [103.860047273135, 1.29071831615665]}, "properties": {"FID": 375, "POSTALCODE": "39799", "TOTALROOMS": "608", "ADDRESS": "7 Raffles Avenue", "NAME": "The Ritz-Carlton, Millenia Singapore"}}, {"type": "Feature", "id": 376, "geometry": {"type": "Point", "coordinates": [103.84539952803, 1.2808263479726]}, "properties": {"FID": 376, "POSTALCODE": "69333", "TOTALROOMS": "80", "ADDRESS": "33 Erskine Road", "NAME": "The Scarlet Hotel"}}, {"type": "Feature", "id": 377, "geometry": {"type": "Point", "coordinates": [103.839843129444, 1.28771628224642]}, "properties": {"FID": 377, "POSTALCODE": "169875", "TOTALROOMS": "103", "ADDRESS": "52 Chin Swee Road", "NAME": "The Seacare Hotel"}}, {"type": "Feature", "id": 378, "geometry": {"type": "Point", "coordinates": [103.845656810801, 1.28341894841009]}, "properties": {"FID": 378, "POSTALCODE": "58759", "TOTALROOMS": "47", "ADDRESS": "210 South Bridge Road", "NAME": "The Southbridge Hotel"}}, {"type": "Feature", "id": 379, "geometry": {"type": "Point", "coordinates": [103.860975920686, 1.30316599753427]}, "properties": {"FID": 379, "POSTALCODE": "199002", "TOTALROOMS": "60", "ADDRESS": "101 Jalan Sultan", "NAME": "The Sultan"}}, {"type": "Feature", "id": 380, "geometry": {"type": "Point", "coordinates": [103.858401648321, 1.30689060083146]}, "properties": {"FID": 380, "POSTALCODE": "207630", "TOTALROOMS": "41", "ADDRESS": "39 Syed Alwi Road", "NAME": "The Vagabond Club"}}, {"type": "Feature", "id": 381, "geometry": {"type": "Point", "coordinates": [103.837472053689, 1.28920178884764]}, "properties": {"FID": 381, "POSTALCODE": "169628", "TOTALROOMS": "37", "ADDRESS": "320 HAVELOCK ROAD", "NAME": "The Warehouse Hotel"}}, {"type": "Feature", "id": 382, "geometry": {"type": "Point", "coordinates": [103.850795190089, 1.27830730139579]}, "properties": {"FID": 382, "POSTALCODE": "18961", "TOTALROOMS": "305", "ADDRESS": "12 Marina View   Asia Square Tower 2", "NAME": "The Westin Singapore"}}, {"type": "Feature", "id": 383, "geometry": {"type": "Point", "coordinates": [103.861714997711, 1.31033156695768]}, "properties": {"FID": 383, "POSTALCODE": "208559", "TOTALROOMS": "7", "ADDRESS": "111H King George's Avenue", "NAME": "Traveller@sg"}}, {"type": "Feature", "id": 384, "geometry": {"type": "Point", "coordinates": [103.847112674122, 1.28741332798257]}, "properties": {"FID": 384, "POSTALCODE": "59672", "TOTALROOMS": "4", "ADDRESS": "33C Hongkong Street", "NAME": "River City Inn"}}, {"type": "Feature", "id": 385, "geometry": {"type": "Point", "coordinates": [103.635089825309, 1.34158799753536]}, "properties": {"FID": 385, "POSTALCODE": "638404", "TOTALROOMS": "19", "ADDRESS": "10 Tuas West Drive", "NAME": "RM Hotel"}}, {"type": "Feature", "id": 386, "geometry": {"type": "Point", "coordinates": [103.841985613419, 1.2911685901423]}, "properties": {"FID": 386, "POSTALCODE": "239032", "TOTALROOMS": "148", "ADDRESS": "15 Merbau Road", "NAME": "Robertson Quay Hotel"}}, {"type": "Feature", "id": 387, "geometry": {"type": "Point", "coordinates": [103.855672467017, 1.30922888332315]}, "properties": {"FID": 387, "POSTALCODE": "207667", "TOTALROOMS": "43", "ADDRESS": "88 Syed Alwi Road , # 01-02", "NAME": "Royal India Hotel"}}, {"type": "Feature", "id": 388, "geometry": {"type": "Point", "coordinates": [103.831445770719, 1.3070893317387]}, "properties": {"FID": 388, "POSTALCODE": "228220", "TOTALROOMS": "511", "ADDRESS": "25 Scotts Road", "NAME": "Royal Plaza"}}, {"type": "Feature", "id": 389, "geometry": {"type": "Point", "coordinates": [103.860315945067, 1.31436251646679]}, "properties": {"FID": 389, "POSTALCODE": "338800", "TOTALROOMS": "7", "ADDRESS": "280  Lavender Street", "NAME": "Rucksack Inn@Lavender"}}, {"type": "Feature", "id": 390, "geometry": {"type": "Point", "coordinates": [103.853595764445, 1.3048093241691]}, "properties": {"FID": 390, "POSTALCODE": "209391", "TOTALROOMS": "31", "ADDRESS": "63 Dunlop Street", "NAME": "Sandpiper Hotel"}}, {"type": "Feature", "id": 391, "geometry": {"type": "Point", "coordinates": [103.85942909091, 1.3040533550601]}, "properties": {"FID": 391, "POSTALCODE": "199207", "TOTALROOMS": "73", "ADDRESS": "8 Jalan Kubor", "NAME": "Santa Grand Hotel Bugis"}}, {"type": "Feature", "id": 392, "geometry": {"type": "Point", "coordinates": [103.905795539216, 1.30672321220349]}, "properties": {"FID": 392, "POSTALCODE": "428877", "TOTALROOMS": "73", "ADDRESS": "171 East Coast Road", "NAME": "Santa Grand Hotel East Coast"}}, {"type": "Feature", "id": 393, "geometry": {"type": "Point", "coordinates": [103.768589721953, 1.29233444507076]}, "properties": {"FID": 393, "POSTALCODE": "118769", "TOTALROOMS": "42", "ADDRESS": "428 Pasir Panjang Road", "NAME": "Santa Grand Hotel West Coast"}}, {"type": "Feature", "id": 394, "geometry": {"type": "Point", "coordinates": [103.882411820843, 1.3123175854746]}, "properties": {"FID": 394, "POSTALCODE": "398673", "TOTALROOMS": "16", "ADDRESS": "15 Lorong 22 Geylang", "NAME": "Seng Wah Hotel"}}, {"type": "Feature", "id": 395, "geometry": {"type": "Point", "coordinates": [103.826756767805, 1.31124741013681]}, "properties": {"FID": 395, "POSTALCODE": "258350", "TOTALROOMS": "792", "ADDRESS": "22 Orange Grove Road", "NAME": "Shangri-La Hotel"}}, {"type": "Feature", "id": 396, "geometry": {"type": "Point", "coordinates": [103.902428919171, 1.30957901993155]}, "properties": {"FID": 396, "POSTALCODE": "427556", "TOTALROOMS": "81", "ADDRESS": "305 Joo Chiat Road", "NAME": "Venue Hotel"}}, {"type": "Feature", "id": 397, "geometry": {"type": "Point", "coordinates": [103.900582356272, 1.31154781233226]}, "properties": {"FID": 397, "POSTALCODE": "427495", "TOTALROOMS": "84", "ADDRESS": "238  Joo Chiat Road", "NAME": "Venue Hotel The Lily"}}, {"type": "Feature", "id": 398, "geometry": {"type": "Point", "coordinates": [103.852442170208, 1.29709988968238]}, "properties": {"FID": 398, "POSTALCODE": "188016", "TOTALROOMS": "89", "ADDRESS": "87 VICTORIA STREET VICTORIA HOTEL", "NAME": "Victoria Hotel"}}, {"type": "Feature", "id": 399, "geometry": {"type": "Point", "coordinates": [103.800885645455, 1.268937687256]}, "properties": {"FID": 399, "POSTALCODE": "119193", "TOTALROOMS": "20", "ADDRESS": "20 LABRADOR VILLA ROAD", "NAME": "Villa Samadhi Singapore"}}, {"type": "Feature", "id": 400, "geometry": {"type": "Point", "coordinates": [103.850716672728, 1.30390261439454]}, "properties": {"FID": 400, "POSTALCODE": "189971", "TOTALROOMS": "210", "ADDRESS": "180 Albert Street", "NAME": "Village Hotel Albert Court"}}, {"type": "Feature", "id": 401, "geometry": {"type": "Point", "coordinates": [103.819943386161, 1.2522595079566]}, "properties": {"FID": 401, "POSTALCODE": "99951", "TOTALROOMS": "606", "ADDRESS": "10 ARTILLERY AVENUE, # 02-01", "NAME": "Village Hotel at Sentosa"}}, {"type": "Feature", "id": 402, "geometry": {"type": "Point", "coordinates": [103.857668958367, 1.30192813656056]}, "properties": {"FID": 402, "POSTALCODE": "188061", "TOTALROOMS": "393", "ADDRESS": "390 Victoria Street", "NAME": "Village Hotel Bugis"}}, {"type": "Feature", "id": 403, "geometry": {"type": "Point", "coordinates": [103.986061077972, 1.39040211466812]}, "properties": {"FID": 403, "POSTALCODE": "508502", "TOTALROOMS": "380", "ADDRESS": "1 Netheravon Road", "NAME": "Village Hotel Changi"}}, {"type": "Feature", "id": 404, "geometry": {"type": "Point", "coordinates": [103.902912254663, 1.3037793801989]}, "properties": {"FID": 404, "POSTALCODE": "449536", "TOTALROOMS": "229", "ADDRESS": "25 Marine Parade Road", "NAME": "Village Hotel Katong"}}, {"type": "Feature", "id": 405, "geometry": {"type": "Point", "coordinates": [103.847112674122, 1.28741332798257]}, "properties": {"FID": 405, "POSTALCODE": "59672", "TOTALROOMS": "5", "ADDRESS": "33 HONGKONG STREET, # 3-33B", "NAME": "Vintage Inn@Clarke Quay"}}, {"type": "Feature", "id": 406, "geometry": {"type": "Point", "coordinates": [103.834573056378, 1.31564774607583]}, "properties": {"FID": 406, "POSTALCODE": "259895", "TOTALROOMS": "57", "ADDRESS": "5 Balmoral Crescent", "NAME": "VIP Hotel"}}, {"type": "Feature", "id": 407, "geometry": {"type": "Point", "coordinates": [103.842428140011, 1.24616549811033]}, "properties": {"FID": 407, "POSTALCODE": "98374", "TOTALROOMS": "240", "ADDRESS": "21 Ocean Way", "NAME": "W Singapore Sentosa Cove Hotel"}}, {"type": "Feature", "id": 408, "geometry": {"type": "Point", "coordinates": [103.835010044889, 1.28432211542801]}, "properties": {"FID": 408, "POSTALCODE": "169040", "TOTALROOMS": "41", "ADDRESS": "231 Outram Road", "NAME": "Wangz Hotel"}}, {"type": "Feature", "id": 409, "geometry": {"type": "Point", "coordinates": [103.844144229256, 1.28394841572664]}, "properties": {"FID": 409, "POSTALCODE": "59488", "TOTALROOMS": "9", "ADDRESS": "8A Mosque Street", "NAME": "Wink Hostel"}}, {"type": "Feature", "id": 410, "geometry": {"type": "Point", "coordinates": [103.859686464959, 1.30420914364725]}, "properties": {"FID": 410, "POSTALCODE": "199323", "TOTALROOMS": "15", "ADDRESS": "11 JALAN KLAPA THE ARDENNES", "NAME": "XY HOTEL BUGIS SINGAPORE"}}, {"type": "Feature", "id": 411, "geometry": {"type": "Point", "coordinates": [103.843161500479, 1.28303983594881]}, "properties": {"FID": 411, "POSTALCODE": "58967", "TOTALROOMS": "23", "ADDRESS": "68A Smith Street", "NAME": "Yes Chinatown Pt. Hotel"}}, {"type": "Feature", "id": 412, "geometry": {"type": "Point", "coordinates": [103.88550407297, 1.31400068921348]}, "properties": {"FID": 412, "POSTALCODE": "389504", "TOTALROOMS": "18", "ADDRESS": "549A Geylang Road", "NAME": "Yew Lian Hotel"}}, {"type": "Feature", "id": 413, "geometry": {"type": "Point", "coordinates": [103.835187495918, 1.306925402087]}, "properties": {"FID": 413, "POSTALCODE": "228516", "TOTALROOMS": "407", "ADDRESS": "21 Mount Elizabeth", "NAME": "York Hotel"}}, {"type": "Feature", "id": 414, "geometry": {"type": "Point", "coordinates": [103.831347087423, 1.30634430874299]}, "properties": {"FID": 414, "POSTALCODE": "238904", "TOTALROOMS": "610", "ADDRESS": "366 ORCHARD ROAD", "NAME": "YOTEL Singapore Orchard Road"}}, {"type": "Feature", "id": 415, "geometry": {"type": "Point", "coordinates": [103.878049979395, 1.31316366633231]}, "properties": {"FID": 415, "POSTALCODE": "388607", "TOTALROOMS": "78", "ADDRESS": "15 LORONG 15 GEYLANG", "NAME": "ZEN Rooms 1515"}}, {"type": "Feature", "id": 416, "geometry": {"type": "Point", "coordinates": [103.855108811865, 1.30981355554945]}, "properties": {"FID": 416, "POSTALCODE": "207681", "TOTALROOMS": "69", "ADDRESS": "162 Tyrwhitt Road", "NAME": "Hotel Yan"}}, {"type": "Feature", "id": 417, "geometry": {"type": "Point", "coordinates": [103.904298453373, 1.30511658824491]}, "properties": {"FID": 417, "POSTALCODE": "428788", "TOTALROOMS": "131", "ADDRESS": "86 EAST COAST ROAD, # 01-01 KATONG SQUARE", "NAME": "Hotel Indigo Singapore Katong"}}, {"type": "Feature", "id": 418, "geometry": {"type": "Point", "coordinates": [103.849907648899, 1.3043685531186]}, "properties": {"FID": 418, "POSTALCODE": "228675", "TOTALROOMS": "23", "ADDRESS": "11 Mackenzie Road", "NAME": "G4 Station Backpackers Hostel"}}]}