{"type": "FeatureCollection", "features": [{"type": "Feature", "id": 1, "geometry": {"type": "Point", "coordinates": [103.809744638635, 1.27349303741218]}, "properties": {"OBJECTID": 1, "TRADE_NAME": "NEIGHBOURHOOD POLICE POSTS", "TRADE_BRAN": "TELOK BLANGAH", "HOUSE_BLK_": "51", "ROAD_NAME": "TELOK BLANGAH DRIVE", "LEVEL_NO": "01", "UNIT_NO": "116", "POSTAL_CD": "100051"}}, {"type": "Feature", "id": 2, "geometry": {"type": "Point", "coordinates": [103.793379591607, 1.27543233871112]}, "properties": {"OBJECTID": 2, "TRADE_NAME": "NEIGHBOURHOOD POLICE POSTS", "TRADE_BRAN": "PASIR PANJANG", "HOUSE_BLK_": "109A", "ROAD_NAME": "PASIR PANJANG ROAD", "LEVEL_NO": "", "UNIT_NO": "", "POSTAL_CD": "118815"}}, {"type": "Feature", "id": 3, "geometry": {"type": "Point", "coordinates": [103.80282952766, 1.28842657952013]}, "properties": {"OBJECTID": 3, "TRADE_NAME": "NEIGHBOURHOOD POLICE CENTRES", "TRADE_BRAN": "QUEENSTOWN", "HOUSE_BLK_": "3", "ROAD_NAME": "QUEENSWAY", "LEVEL_NO": "01", "UNIT_NO": "03", "POSTAL_CD": "149073"}}, {"type": "Feature", "id": 4, "geometry": {"type": "Point", "coordinates": [103.823400103579, 1.28560832591366]}, "properties": {"OBJECTID": 4, "TRADE_NAME": "NEIGHBOURHOOD POLICE CENTRES", "TRADE_BRAN": "BUKIT MERAH WEST", "HOUSE_BLK_": "500", "ROAD_NAME": "BUKIT MERAH VIEW", "LEVEL_NO": "01", "UNIT_NO": "01", "POSTAL_CD": "159682"}}, {"type": "Feature", "id": 5, "geometry": {"type": "Point", "coordinates": [103.829981939283, 1.27728359791129]}, "properties": {"OBJECTID": 5, "TRADE_NAME": "NEIGHBOURHOOD POLICE POSTS", "TRADE_BRAN": "TANJONG PAGAR", "HOUSE_BLK_": "144", "ROAD_NAME": "JALAN BUKIT MERAH", "LEVEL_NO": "01", "UNIT_NO": "1114", "POSTAL_CD": "160144"}}, {"type": "Feature", "id": 6, "geometry": {"type": "Point", "coordinates": [103.820541104573, 1.27698913397702]}, "properties": {"OBJECTID": 6, "TRADE_NAME": "NEIGHBOURHOOD POLICE POSTS", "TRADE_BRAN": "RADIN MAS", "HOUSE_BLK_": "15", "ROAD_NAME": "TELOK BLANGAH CRESCENT", "LEVEL_NO": "01", "UNIT_NO": "250", "POSTAL_CD": "090015"}}, {"type": "Feature", "id": 7, "geometry": {"type": "Point", "coordinates": [103.828880683892, 1.28162343560339]}, "properties": {"OBJECTID": 7, "TRADE_NAME": "NEIGHBOURHOOD POLICE POSTS", "TRADE_BRAN": "TIONG BAHRU", "HOUSE_BLK_": "128", "ROAD_NAME": "KIM TIAN ROAD", "LEVEL_NO": "01", "UNIT_NO": "123", "POSTAL_CD": "160128"}}, {"type": "Feature", "id": 8, "geometry": {"type": "Point", "coordinates": [103.828136973167, 1.28885709907586]}, "properties": {"OBJECTID": 8, "TRADE_NAME": "NEIGHBOURHOOD POLICE POSTS", "TRADE_BRAN": "KIM SENG", "HOUSE_BLK_": "5", "ROAD_NAME": "BEO CRESCENT", "LEVEL_NO": "", "UNIT_NO": "", "POSTAL_CD": "169981"}}, {"type": "Feature", "id": 9, "geometry": {"type": "Point", "coordinates": [103.839249649128, 1.27851054790546]}, "properties": {"OBJECTID": 9, "TRADE_NAME": "POLICE CANTONMENT COMPLEX", "TRADE_BRAN": "", "HOUSE_BLK_": "391", "ROAD_NAME": "NEW BRIDGE ROAD", "LEVEL_NO": "", "UNIT_NO": "", "POSTAL_CD": "088762"}}, {"type": "Feature", "id": 10, "geometry": {"type": "Point", "coordinates": [103.839416184896, 1.27848261077615]}, "properties": {"OBJECTID": 10, "TRADE_NAME": "NEIGHBOURHOOD POLICE CENTRES", "TRADE_BRAN": "BUKIT MERAH EAST", "HOUSE_BLK_": "391", "ROAD_NAME": "NEW BRIDGE ROAD", "LEVEL_NO": "", "UNIT_NO": "", "POSTAL_CD": "088762"}}, {"type": "Feature", "id": 11, "geometry": {"type": "Point", "coordinates": [103.839409246538, 1.27854546686986]}, "properties": {"OBJECTID": 11, "TRADE_NAME": "POLICE STATIONS", "TRADE_BRAN": "CENTRAL POLICE DIVISIONAL HEADQUARTER", "HOUSE_BLK_": "391", "ROAD_NAME": "NEW BRIDGE ROAD", "LEVEL_NO": "03", "UNIT_NO": "112", "POSTAL_CD": "088762"}}, {"type": "Feature", "id": 12, "geometry": {"type": "Point", "coordinates": [103.839471697589, 1.27854546672037]}, "properties": {"OBJECTID": 12, "TRADE_NAME": "POLICE OFFICES", "TRADE_BRAN": "POLICE WELFARE DIVISION", "HOUSE_BLK_": "391", "ROAD_NAME": "NEW BRIDGE ROAD", "LEVEL_NO": "02", "UNIT_NO": "106", "POSTAL_CD": "088762"}}, {"type": "Feature", "id": 13, "geometry": {"type": "Point", "coordinates": [103.83938842891, 1.2784127712588]}, "properties": {"OBJECTID": 13, "TRADE_NAME": "POLICE OFFICES", "TRADE_BRAN": "VOLUNTEER SPECIAL CONSTABULARY HEADQUARTER", "HOUSE_BLK_": "391", "ROAD_NAME": "NEW BRIDGE ROAD", "LEVEL_NO": "", "UNIT_NO": "", "POSTAL_CD": "088762"}}, {"type": "Feature", "id": 14, "geometry": {"type": "Point", "coordinates": [103.839492513807, 1.2784616591702]}, "properties": {"OBJECTID": 14, "TRADE_NAME": "POLICE OFFICES", "TRADE_BRAN": "CRIMINAL INVESTIGATION DEPARTMENT", "HOUSE_BLK_": "391", "ROAD_NAME": "NEW BRIDGE ROAD", "LEVEL_NO": "", "UNIT_NO": "", "POSTAL_CD": "088762"}}, {"type": "Feature", "id": 15, "geometry": {"type": "Point", "coordinates": [103.839325978089, 1.27851054772732]}, "properties": {"OBJECTID": 15, "TRADE_NAME": "POLICE OFFICES", "TRADE_BRAN": "COMMERCIAL AFFAIRS DEPARTMENT", "HOUSE_BLK_": "391", "ROAD_NAME": "NEW BRIDGE ROAD", "LEVEL_NO": "06", "UNIT_NO": "701", "POSTAL_CD": "088762"}}, {"type": "Feature", "id": 16, "geometry": {"type": "Point", "coordinates": [103.798135655717, 1.30015629481409]}, "properties": {"OBJECTID": 16, "TRADE_NAME": "NEIGHBOURHOOD POLICE POSTS", "TRADE_BRAN": "ALEXANDRA", "HOUSE_BLK_": "46-2", "ROAD_NAME": "COMMONWEALTH DRIVE", "LEVEL_NO": "01", "UNIT_NO": "382A", "POSTAL_CD": "140462"}}, {"type": "Feature", "id": 17, "geometry": {"type": "Point", "coordinates": [103.800771718052, 1.29571220916539]}, "properties": {"OBJECTID": 17, "TRADE_NAME": "POLICE OFFICES", "TRADE_BRAN": "SPECIAL OPERATIONS COMMAND", "HOUSE_BLK_": "0", "ROAD_NAME": "QUEENSWAY", "LEVEL_NO": "", "UNIT_NO": "", "POSTAL_CD": "149051"}}, {"type": "Feature", "id": 18, "geometry": {"type": "Point", "coordinates": [103.839835303961, 1.29897844258266]}, "properties": {"OBJECTID": 18, "TRADE_NAME": "NEIGHBOURHOOD POLICE CENTRES", "TRADE_BRAN": "ORCHARD", "HOUSE_BLK_": "51", "ROAD_NAME": "KILLINEY ROAD", "LEVEL_NO": "", "UNIT_NO": "", "POSTAL_CD": "239572"}}, {"type": "Feature", "id": 19, "geometry": {"type": "Point", "coordinates": [103.782320292529, 1.30380244669097]}, "properties": {"OBJECTID": 19, "TRADE_NAME": "NEIGHBOURHOOD POLICE POSTS", "TRADE_BRAN": "DOVER", "HOUSE_BLK_": "3", "ROAD_NAME": "DOVER ROAD", "LEVEL_NO": "01", "UNIT_NO": "368", "POSTAL_CD": "130003"}}, {"type": "Feature", "id": 20, "geometry": {"type": "Point", "coordinates": [103.847108747239, 1.28652745649144]}, "properties": {"OBJECTID": 20, "TRADE_NAME": "NEIGHBOURHOOD POLICE POSTS", "TRADE_BRAN": "KRETA AYER", "HOUSE_BLK_": "55", "ROAD_NAME": "NORTH CANAL ROAD", "LEVEL_NO": "", "UNIT_NO": "", "POSTAL_CD": "059282"}}, {"type": "Feature", "id": 21, "geometry": {"type": "Point", "coordinates": [103.826344141388, 1.29171239168811]}, "properties": {"OBJECTID": 21, "TRADE_NAME": "NEIGHBOURHOOD POLICE POSTS", "TRADE_BRAN": "RIVER VALLEY", "HOUSE_BLK_": "4", "ROAD_NAME": "DELTA AVENUE", "LEVEL_NO": "01", "UNIT_NO": "02", "POSTAL_CD": "161004"}}, {"type": "Feature", "id": 22, "geometry": {"type": "Point", "coordinates": [103.907031514009, 1.30356090717475]}, "properties": {"OBJECTID": 22, "TRADE_NAME": "NEIGHBOURHOOD POLICE POSTS", "TRADE_BRAN": "MARINE PARADE", "HOUSE_BLK_": "74", "ROAD_NAME": "MARINE DRIVE", "LEVEL_NO": "01", "UNIT_NO": "35", "POSTAL_CD": "440074"}}, {"type": "Feature", "id": 23, "geometry": {"type": "Point", "coordinates": [103.766555844151, 1.31717214122512]}, "properties": {"OBJECTID": 23, "TRADE_NAME": "NEIGHBOURHOOD POLICE CENTRES", "TRADE_BRAN": "CLEMENTI", "HOUSE_BLK_": "20", "ROAD_NAME": "CLEMENTI AVENUE 5", "LEVEL_NO": "", "UNIT_NO": "", "POSTAL_CD": "129858"}}, {"type": "Feature", "id": 24, "geometry": {"type": "Point", "coordinates": [103.766555844151, 1.31717214122512]}, "properties": {"OBJECTID": 24, "TRADE_NAME": "POLICE STATIONS", "TRADE_BRAN": "CLEMENTI POLICE DIVISIONAL HEADQUARTER", "HOUSE_BLK_": "20", "ROAD_NAME": "CLEMENTI AVENUE 5", "LEVEL_NO": "", "UNIT_NO": "", "POSTAL_CD": "129858"}}, {"type": "Feature", "id": 25, "geometry": {"type": "Point", "coordinates": [103.764127180336, 1.31196690967806]}, "properties": {"OBJECTID": 25, "TRADE_NAME": "NEIGHBOURHOOD POLICE POSTS", "TRADE_BRAN": "CLEMENTI", "HOUSE_BLK_": "427", "ROAD_NAME": "CLEMENTI AVENUE 3", "LEVEL_NO": "01", "UNIT_NO": "456", "POSTAL_CD": "120427"}}, {"type": "Feature", "id": 26, "geometry": {"type": "Point", "coordinates": [103.76396843616, 1.30494405246255]}, "properties": {"OBJECTID": 26, "TRADE_NAME": "NEIGHBOURHOOD POLICE POSTS", "TRADE_BRAN": "WEST COAST", "HOUSE_BLK_": "728", "ROAD_NAME": "CLEMENTI WEST STREET 2", "LEVEL_NO": "01", "UNIT_NO": "418", "POSTAL_CD": "120728"}}, {"type": "Feature", "id": 27, "geometry": {"type": "Point", "coordinates": [103.901535641698, 1.30992279967102]}, "properties": {"OBJECTID": 27, "TRADE_NAME": "NEIGHBOURHOOD POLICE POSTS", "TRADE_BRAN": "JOO CHIAT", "HOUSE_BLK_": "267", "ROAD_NAME": "ONAN ROAD", "LEVEL_NO": "", "UNIT_NO": "", "POSTAL_CD": "424773"}}, {"type": "Feature", "id": 28, "geometry": {"type": "Point", "coordinates": [103.863424887605, 1.30395745295619]}, "properties": {"OBJECTID": 28, "TRADE_NAME": "NEIGHBOURHOOD POLICE POSTS", "TRADE_BRAN": "KAMPONG GLAM", "HOUSE_BLK_": "17A", "ROAD_NAME": "BEACH ROAD", "LEVEL_NO": "", "UNIT_NO": "", "POSTAL_CD": "199596"}}, {"type": "Feature", "id": 29, "geometry": {"type": "Point", "coordinates": [103.798291950417, 1.3062677153933]}, "properties": {"OBJECTID": 29, "TRADE_NAME": "NEIGHBOURHOOD POLICE POSTS", "TRADE_BRAN": "COMMONWEALTH", "HOUSE_BLK_": "111", "ROAD_NAME": "COMMONWEALTH CRESCENT", "LEVEL_NO": "01", "UNIT_NO": "288A", "POSTAL_CD": "140111"}}, {"type": "Feature", "id": 30, "geometry": {"type": "Point", "coordinates": [103.793230916208, 1.30923402180804]}, "properties": {"OBJECTID": 30, "TRADE_NAME": "NEIGHBOURHOOD POLICE POSTS", "TRADE_BRAN": "BUONA VISTA", "HOUSE_BLK_": "13", "ROAD_NAME": "HOLLAND DRIVE", "LEVEL_NO": "01", "UNIT_NO": "38/40", "POSTAL_CD": "271013"}}, {"type": "Feature", "id": 31, "geometry": {"type": "Point", "coordinates": [103.846482122176, 1.31204343392024]}, "properties": {"OBJECTID": 31, "TRADE_NAME": "NEIGHBOURHOOD POLICE CENTRES", "TRADE_BRAN": "KAMPONG JAVA", "HOUSE_BLK_": "21", "ROAD_NAME": "KAMPONG JAVA ROAD", "LEVEL_NO": "", "UNIT_NO": "", "POSTAL_CD": "228892"}}, {"type": "Feature", "id": 32, "geometry": {"type": "Point", "coordinates": [103.846528001074, 1.31184717930402]}, "properties": {"OBJECTID": 32, "TRADE_NAME": "POLICE STATIONS", "TRADE_BRAN": "TANGLIN POLICE DIVISIONAL HEADQUARTER", "HOUSE_BLK_": "21", "ROAD_NAME": "KAMPONG JAVA ROAD", "LEVEL_NO": "", "UNIT_NO": "", "POSTAL_CD": "228892"}}, {"type": "Feature", "id": 33, "geometry": {"type": "Point", "coordinates": [103.854218906391, 1.30761941438659]}, "properties": {"OBJECTID": 33, "TRADE_NAME": "NEIGHBOURHOOD POLICE CENTRES", "TRADE_BRAN": "ROCHOR", "HOUSE_BLK_": "11", "ROAD_NAME": "KAMPONG KAPOR ROAD", "LEVEL_NO": "", "UNIT_NO": "", "POSTAL_CD": "208678"}}, {"type": "Feature", "id": 34, "geometry": {"type": "Point", "coordinates": [103.851454402463, 1.31389163914844]}, "properties": {"OBJECTID": 34, "TRADE_NAME": "NEIGHBOURHOOD POLICE POSTS", "TRADE_BRAN": "CAIRNHILL", "HOUSE_BLK_": "9", "ROAD_NAME": "GLOUCESTER ROAD", "LEVEL_NO": "01", "UNIT_NO": "03", "POSTAL_CD": "210009"}}, {"type": "Feature", "id": 35, "geometry": {"type": "Point", "coordinates": [103.888566652019, 1.30786613813015]}, "properties": {"OBJECTID": 35, "TRADE_NAME": "NEIGHBOURHOOD POLICE POSTS", "TRADE_BRAN": "MOUNTBATTEN", "HOUSE_BLK_": "60", "ROAD_NAME": "DAKOTA CRESCENT", "LEVEL_NO": "01", "UNIT_NO": "213", "POSTAL_CD": "390060"}}, {"type": "Feature", "id": 36, "geometry": {"type": "Point", "coordinates": [103.914451373374, 1.30622307057781]}, "properties": {"OBJECTID": 36, "TRADE_NAME": "NEIGHBOURHOOD POLICE CENTRES", "TRADE_BRAN": "MARINE PARADE", "HOUSE_BLK_": "300", "ROAD_NAME": "MARINE PARADE ROAD", "LEVEL_NO": "", "UNIT_NO": "", "POSTAL_CD": "449296"}}, {"type": "Feature", "id": 37, "geometry": {"type": "Point", "coordinates": [103.929754193545, 1.31390894302355]}, "properties": {"OBJECTID": 37, "TRADE_NAME": "NEIGHBOURHOOD POLICE POSTS", "TRADE_BRAN": "SIGLAP", "HOUSE_BLK_": "125", "ROAD_NAME": "UPPER EAST COAST ROAD", "LEVEL_NO": "", "UNIT_NO": "", "POSTAL_CD": "455246"}}, {"type": "Feature", "id": 38, "geometry": {"type": "Point", "coordinates": [103.722498000339, 1.32849531505942]}, "properties": {"OBJECTID": 38, "TRADE_NAME": "NEIGHBOURHOOD POLICE POSTS", "TRADE_BRAN": "JURONG", "HOUSE_BLK_": "158", "ROAD_NAME": "YUNG LOH ROAD", "LEVEL_NO": "01", "UNIT_NO": "58", "POSTAL_CD": "610158"}}, {"type": "Feature", "id": 39, "geometry": {"type": "Point", "coordinates": [103.741928330079, 1.32104174564219]}, "properties": {"OBJECTID": 39, "TRADE_NAME": "NEIGHBOURHOOD POLICE POSTS", "TRADE_BRAN": "AYER RAJAH", "HOUSE_BLK_": "43", "ROAD_NAME": "TEBAN GARDENS ROAD", "LEVEL_NO": "01", "UNIT_NO": "388", "POSTAL_CD": "600043"}}, {"type": "Feature", "id": 40, "geometry": {"type": "Point", "coordinates": [103.772420746415, 1.31976651616881]}, "properties": {"OBJECTID": 40, "TRADE_NAME": "POLICE OFFICES", "TRADE_BRAN": "PROTECTIVE SECURITY COMMAND", "HOUSE_BLK_": "300", "ROAD_NAME": "ULU PANDAN ROAD", "LEVEL_NO": "", "UNIT_NO": "", "POSTAL_CD": "596472"}}, {"type": "Feature", "id": 41, "geometry": {"type": "Point", "coordinates": [103.812443974553, 1.32265899005898]}, "properties": {"OBJECTID": 41, "TRADE_NAME": "NEIGHBOURHOOD POLICE CENTRES", "TRADE_BRAN": "BUKIT TIMAH", "HOUSE_BLK_": "1", "ROAD_NAME": "DUKE'S ROAD", "LEVEL_NO": "", "UNIT_NO": "", "POSTAL_CD": "268914"}}, {"type": "Feature", "id": 42, "geometry": {"type": "Point", "coordinates": [103.845082683741, 1.32429918087972]}, "properties": {"OBJECTID": 42, "TRADE_NAME": "POLICE OFFICES", "TRADE_BRAN": "POLICE HEADQUARTER", "HOUSE_BLK_": "28", "ROAD_NAME": "IRRAWADDY ROAD", "LEVEL_NO": "", "UNIT_NO": "", "POSTAL_CD": "329560"}}, {"type": "Feature", "id": 43, "geometry": {"type": "Point", "coordinates": [103.850545321137, 1.32871478383728]}, "properties": {"OBJECTID": 43, "TRADE_NAME": "NEIGHBOURHOOD POLICE POSTS", "TRADE_BRAN": "MOULMEIN", "HOUSE_BLK_": "101", "ROAD_NAME": "JALAN RAJAH", "LEVEL_NO": "01", "UNIT_NO": "01", "POSTAL_CD": "321101"}}, {"type": "Feature", "id": 44, "geometry": {"type": "Point", "coordinates": [103.845065119007, 1.32414892349694]}, "properties": {"OBJECTID": 44, "TRADE_NAME": "POLICE OFFICES", "TRADE_BRAN": "OPERATION DEPARTMENT", "HOUSE_BLK_": "28", "ROAD_NAME": "IRRAWADDY ROAD", "LEVEL_NO": "", "UNIT_NO": "", "POSTAL_CD": "329560"}}, {"type": "Feature", "id": 45, "geometry": {"type": "Point", "coordinates": [103.845003646176, 1.32413124617391]}, "properties": {"OBJECTID": 45, "TRADE_NAME": "POLICE OFFICES", "TRADE_BRAN": "POLICE TECHNOLOGY DEPARTMENT", "HOUSE_BLK_": "28", "ROAD_NAME": "IRRAWADDY ROAD", "LEVEL_NO": "", "UNIT_NO": "", "POSTAL_CD": "329560"}}, {"type": "Feature", "id": 46, "geometry": {"type": "Point", "coordinates": [103.845399085937, 1.32427534753407]}, "properties": {"OBJECTID": 46, "TRADE_NAME": "POLICE OFFICES", "TRADE_BRAN": "PUBLIC AFFAIRS DEPARTMENT", "HOUSE_BLK_": "28", "ROAD_NAME": "IRRAWADDY ROAD", "LEVEL_NO": "", "UNIT_NO": "", "POSTAL_CD": "329560"}}, {"type": "Feature", "id": 47, "geometry": {"type": "Point", "coordinates": [103.845170502943, 1.32429034210396]}, "properties": {"OBJECTID": 47, "TRADE_NAME": "POLICE OFFICES", "TRADE_BRAN": "POLICE LOGISTICS DEPARTMENT", "HOUSE_BLK_": "28", "ROAD_NAME": "IRRAWADDY ROAD", "LEVEL_NO": "", "UNIT_NO": "", "POSTAL_CD": "329560"}}, {"type": "Feature", "id": 48, "geometry": {"type": "Point", "coordinates": [103.845109028918, 1.32421079358337]}, "properties": {"OBJECTID": 48, "TRADE_NAME": "POLICE OFFICES", "TRADE_BRAN": "POLICE INTELLIGENCE DEPARTMENT", "HOUSE_BLK_": "28", "ROAD_NAME": "IRRAWADDY ROAD", "LEVEL_NO": "", "UNIT_NO": "", "POSTAL_CD": "329560"}}, {"type": "Feature", "id": 49, "geometry": {"type": "Point", "coordinates": [103.858565499432, 1.32540757917212]}, "properties": {"OBJECTID": 49, "TRADE_NAME": "NEIGHBOURHOOD POLICE POSTS", "TRADE_BRAN": "WHAMPOA", "HOUSE_BLK_": "29", "ROAD_NAME": "JALAN BAHAGIA", "LEVEL_NO": "01", "UNIT_NO": "368", "POSTAL_CD": "320029"}}, {"type": "Feature", "id": 50, "geometry": {"type": "Point", "coordinates": [103.86107454625, 1.32048559162623]}, "properties": {"OBJECTID": 50, "TRADE_NAME": "NEIGHBOURHOOD POLICE POSTS", "TRADE_BRAN": "KALLANG", "HOUSE_BLK_": "105", "ROAD_NAME": "TOWNER ROAD", "LEVEL_NO": "01", "UNIT_NO": "400", "POSTAL_CD": "321105"}}, {"type": "Feature", "id": 51, "geometry": {"type": "Point", "coordinates": [103.871031668291, 1.32194544039088]}, "properties": {"OBJECTID": 51, "TRADE_NAME": "NEIGHBOURHOOD POLICE POSTS", "TRADE_BRAN": "KOLAM AYER", "HOUSE_BLK_": "72", "ROAD_NAME": "GEYLANG BAHRU", "LEVEL_NO": "01", "UNIT_NO": "3038", "POSTAL_CD": "330072"}}, {"type": "Feature", "id": 52, "geometry": {"type": "Point", "coordinates": [103.890996703355, 1.32632182809118]}, "properties": {"OBJECTID": 52, "TRADE_NAME": "NEIGHBOURHOOD POLICE CENTRES", "TRADE_BRAN": "GEYLANG", "HOUSE_BLK_": "132", "ROAD_NAME": "PAYA LEBAR ROAD", "LEVEL_NO": "", "UNIT_NO": "", "POSTAL_CD": "409014"}}, {"type": "Feature", "id": 53, "geometry": {"type": "Point", "coordinates": [103.891354664094, 1.33018332880566]}, "properties": {"OBJECTID": 53, "TRADE_NAME": "POLICE STATIONS", "TRADE_BRAN": "TRAFFIC POLICE HEADQUARTER", "HOUSE_BLK_": "10", "ROAD_NAME": "UBI AVENUE 3", "LEVEL_NO": "", "UNIT_NO": "", "POSTAL_CD": "408865"}}, {"type": "Feature", "id": 54, "geometry": {"type": "Point", "coordinates": [103.884029081543, 1.32037126554178]}, "properties": {"OBJECTID": 54, "TRADE_NAME": "NEIGHBOURHOOD POLICE POSTS", "TRADE_BRAN": "GEYLANG SERAI", "HOUSE_BLK_": "111", "ROAD_NAME": "ALJUNIED CRESCENT", "LEVEL_NO": "01", "UNIT_NO": "102", "POSTAL_CD": "380111"}}, {"type": "Feature", "id": 55, "geometry": {"type": "Point", "coordinates": [103.887588393413, 1.32386951407305]}, "properties": {"OBJECTID": 55, "TRADE_NAME": "NEIGHBOURHOOD POLICE POSTS", "TRADE_BRAN": "MACPHERSON", "HOUSE_BLK_": "54", "ROAD_NAME": "PIPIT ROAD", "LEVEL_NO": "01", "UNIT_NO": "82/84", "POSTAL_CD": "370054"}}, {"type": "Feature", "id": 56, "geometry": {"type": "Point", "coordinates": [103.903134953129, 1.32183432006873]}, "properties": {"OBJECTID": 56, "TRADE_NAME": "NEIGHBOURHOOD POLICE POSTS", "TRADE_BRAN": "KAMPONG UBI", "HOUSE_BLK_": "9", "ROAD_NAME": "EUNOS CRESCENT", "LEVEL_NO": "01", "UNIT_NO": "2687", "POSTAL_CD": "400009"}}, {"type": "Feature", "id": 57, "geometry": {"type": "Point", "coordinates": [103.91161923951, 1.32366483423648]}, "properties": {"OBJECTID": 57, "TRADE_NAME": "NEIGHBOURHOOD POLICE POSTS", "TRADE_BRAN": "KAMPONG KEMBANGAN", "HOUSE_BLK_": "112", "ROAD_NAME": "LENGKONG TIGA", "LEVEL_NO": "01", "UNIT_NO": "215", "POSTAL_CD": "410112"}}, {"type": "Feature", "id": 58, "geometry": {"type": "Point", "coordinates": [103.919815720329, 1.32370925116306]}, "properties": {"OBJECTID": 58, "TRADE_NAME": "NEIGHBOURHOOD POLICE CENTRES", "TRADE_BRAN": "BEDOK SOUTH", "HOUSE_BLK_": "20", "ROAD_NAME": "CHAI CHEE DRIVE", "LEVEL_NO": "", "UNIT_NO": "", "POSTAL_CD": "469045"}}, {"type": "Feature", "id": 59, "geometry": {"type": "Point", "coordinates": [103.92603801426, 1.32485409555748]}, "properties": {"OBJECTID": 59, "TRADE_NAME": "NEIGHBOURHOOD POLICE POSTS", "TRADE_BRAN": "CHAI CHEE", "HOUSE_BLK_": "35", "ROAD_NAME": "CHAI CHEE AVENUE", "LEVEL_NO": "01", "UNIT_NO": "256", "POSTAL_CD": "461035"}}, {"type": "Feature", "id": 60, "geometry": {"type": "Point", "coordinates": [103.937061569912, 1.33270940953625]}, "properties": {"OBJECTID": 60, "TRADE_NAME": "NEIGHBOURHOOD POLICE CENTRES", "TRADE_BRAN": "BEDOK NORTH", "HOUSE_BLK_": "30", "ROAD_NAME": "BEDOK NORTH ROAD", "LEVEL_NO": "", "UNIT_NO": "", "POSTAL_CD": "469676"}}, {"type": "Feature", "id": 61, "geometry": {"type": "Point", "coordinates": [103.937137899798, 1.33269543841266]}, "properties": {"OBJECTID": 61, "TRADE_NAME": "POLICE STATIONS", "TRADE_BRAN": "BEDOK POLICE DIVISIONAL HEADQUARTER", "HOUSE_BLK_": "30", "ROAD_NAME": "BEDOK NORTH ROAD", "LEVEL_NO": "", "UNIT_NO": "", "POSTAL_CD": "469676"}}, {"type": "Feature", "id": 62, "geometry": {"type": "Point", "coordinates": [103.935956640939, 1.32098222645901]}, "properties": {"OBJECTID": 62, "TRADE_NAME": "NEIGHBOURHOOD POLICE POSTS", "TRADE_BRAN": "BEDOK", "HOUSE_BLK_": "15", "ROAD_NAME": "BEDOK SOUTH ROAD", "LEVEL_NO": "01", "UNIT_NO": "117", "POSTAL_CD": "460015"}}, {"type": "Feature", "id": 63, "geometry": {"type": "Point", "coordinates": [103.942265302489, 1.32343585478071]}, "properties": {"OBJECTID": 63, "TRADE_NAME": "NEIGHBOURHOOD POLICE POSTS", "TRADE_BRAN": "TANAH MERAH", "HOUSE_BLK_": "51", "ROAD_NAME": "NEW UPPER CHANGI ROAD", "LEVEL_NO": "01", "UNIT_NO": "1514", "POSTAL_CD": "461051"}}, {"type": "Feature", "id": 64, "geometry": {"type": "Point", "coordinates": [103.879466009563, 1.3357044619594]}, "properties": {"OBJECTID": 64, "TRADE_NAME": "NEIGHBOURHOOD POLICE POSTS", "TRADE_BRAN": "ALJUNIED", "HOUSE_BLK_": "13", "ROAD_NAME": "JOO SENG ROAD", "LEVEL_NO": "01", "UNIT_NO": "69", "POSTAL_CD": "360013"}}, {"type": "Feature", "id": 65, "geometry": {"type": "Point", "coordinates": [103.879392671893, 1.33989123203106]}, "properties": {"OBJECTID": 65, "TRADE_NAME": "POLICE OFFICES", "TRADE_BRAN": "GURKHA CONTINGENT", "HOUSE_BLK_": "9", "ROAD_NAME": "VERNON PARK", "LEVEL_NO": "", "UNIT_NO": "", "POSTAL_CD": "367828"}}, {"type": "Feature", "id": 66, "geometry": {"type": "Point", "coordinates": [103.712965004684, 1.34764040795235]}, "properties": {"OBJECTID": 66, "TRADE_NAME": "NEIGHBOURHOOD POLICE POSTS", "TRADE_BRAN": "BOON LAY", "HOUSE_BLK_": "210", "ROAD_NAME": "BOON LAY PLACE", "LEVEL_NO": "01", "UNIT_NO": "00", "POSTAL_CD": "640210"}}, {"type": "Feature", "id": 67, "geometry": {"type": "Point", "coordinates": [103.737230755804, 1.34013271635573]}, "properties": {"OBJECTID": 67, "TRADE_NAME": "NEIGHBOURHOOD POLICE CENTRES", "TRADE_BRAN": "JURONG EAST", "HOUSE_BLK_": "92", "ROAD_NAME": "BOON LAY WAY", "LEVEL_NO": "", "UNIT_NO": "", "POSTAL_CD": "609962"}}, {"type": "Feature", "id": 68, "geometry": {"type": "Point", "coordinates": [103.774586319194, 1.33958155881219]}, "properties": {"OBJECTID": 68, "TRADE_NAME": "NEIGHBOURHOOD POLICE POSTS", "TRADE_BRAN": "BUKIT TIMAH", "HOUSE_BLK_": "1", "ROAD_NAME": "TOH YI DRIVE", "LEVEL_NO": "01", "UNIT_NO": "139", "POSTAL_CD": "591501"}}, {"type": "Feature", "id": 69, "geometry": {"type": "Point", "coordinates": [103.850467030399, 1.33462578873898]}, "properties": {"OBJECTID": 69, "TRADE_NAME": "NEIGHBOURHOOD POLICE CENTRES", "TRADE_BRAN": "TOA PAYOH", "HOUSE_BLK_": "93", "ROAD_NAME": "TOA PAYOH CENTRAL", "LEVEL_NO": "01", "UNIT_NO": "02", "POSTAL_CD": "319194"}}, {"type": "Feature", "id": 70, "geometry": {"type": "Point", "coordinates": [103.845598140486, 1.34238231088043]}, "properties": {"OBJECTID": 70, "TRADE_NAME": "NEIGHBOURHOOD POLICE POSTS", "TRADE_BRAN": "BOON TECK", "HOUSE_BLK_": "207", "ROAD_NAME": "TOA PAYOH NORTH", "LEVEL_NO": "01", "UNIT_NO": "1231", "POSTAL_CD": "310207"}}, {"type": "Feature", "id": 71, "geometry": {"type": "Point", "coordinates": [103.859489720149, 1.33696011403418]}, "properties": {"OBJECTID": 71, "TRADE_NAME": "NEIGHBOURHOOD POLICE POSTS", "TRADE_BRAN": "KIM KEAT", "HOUSE_BLK_": "231", "ROAD_NAME": "LORONG 8 TOA PAYOH", "LEVEL_NO": "01", "UNIT_NO": "186", "POSTAL_CD": "310231"}}, {"type": "Feature", "id": 72, "geometry": {"type": "Point", "coordinates": [103.866911289257, 1.33312018060742]}, "properties": {"OBJECTID": 72, "TRADE_NAME": "NEIGHBOURHOOD POLICE POSTS", "TRADE_BRAN": "POTONG PASIR", "HOUSE_BLK_": "142", "ROAD_NAME": "POTONG PASIR AVENUE 3", "LEVEL_NO": "01", "UNIT_NO": "240", "POSTAL_CD": "350142"}}, {"type": "Feature", "id": 74, "geometry": {"type": "Point", "coordinates": [103.914880709895, 1.33411556229428]}, "properties": {"OBJECTID": 74, "TRADE_NAME": "NEIGHBOURHOOD POLICE POSTS", "TRADE_BRAN": "EUNOS", "HOUSE_BLK_": "629", "ROAD_NAME": "BEDOK RESERVOIR ROAD", "LEVEL_NO": "01", "UNIT_NO": "1620", "POSTAL_CD": "470629"}}, {"type": "Feature", "id": 75, "geometry": {"type": "Point", "coordinates": [103.929639233274, 1.33414486861579]}, "properties": {"OBJECTID": 75, "TRADE_NAME": "NEIGHBOURHOOD POLICE POSTS", "TRADE_BRAN": "KAKI BUKIT", "HOUSE_BLK_": "526", "ROAD_NAME": "BEDOK NORTH STREET 3", "LEVEL_NO": "01", "UNIT_NO": "448", "POSTAL_CD": "460526"}}, {"type": "Feature", "id": 76, "geometry": {"type": "Point", "coordinates": [103.938708001944, 1.34626377142747]}, "properties": {"OBJECTID": 76, "TRADE_NAME": "NEIGHBOURHOOD POLICE CENTRES", "TRADE_BRAN": "TAMPINES", "HOUSE_BLK_": "6", "ROAD_NAME": "TAMPINES AVENUE 4", "LEVEL_NO": "", "UNIT_NO": "", "POSTAL_CD": "529682"}}, {"type": "Feature", "id": 77, "geometry": {"type": "Point", "coordinates": [103.954802678993, 1.34452666659434]}, "properties": {"OBJECTID": 77, "TRADE_NAME": "NEIGHBOURHOOD POLICE CENTRES", "TRADE_BRAN": "CHANGI", "HOUSE_BLK_": "9", "ROAD_NAME": "SIMEI STREET 2", "LEVEL_NO": "", "UNIT_NO": "", "POSTAL_CD": "529914"}}, {"type": "Feature", "id": 78, "geometry": {"type": "Point", "coordinates": [103.949231683985, 1.34738871138359]}, "properties": {"OBJECTID": 78, "TRADE_NAME": "NEIGHBOURHOOD POLICE POSTS", "TRADE_BRAN": "CHANGKAT", "HOUSE_BLK_": "109", "ROAD_NAME": "TAMPINES STREET 11", "LEVEL_NO": "01", "UNIT_NO": "261", "POSTAL_CD": "521109"}}, {"type": "Feature", "id": 79, "geometry": {"type": "Point", "coordinates": [103.702111120188, 1.35088683013906]}, "properties": {"OBJECTID": 79, "TRADE_NAME": "NEIGHBOURHOOD POLICE CENTRES", "TRADE_BRAN": "NANYANG", "HOUSE_BLK_": "2", "ROAD_NAME": "JURONG WEST AVENUE 5", "LEVEL_NO": "", "UNIT_NO": "", "POSTAL_CD": "649482"}}, {"type": "Feature", "id": 80, "geometry": {"type": "Point", "coordinates": [103.702166632162, 1.35090778541494]}, "properties": {"OBJECTID": 80, "TRADE_NAME": "POLICE STATIONS", "TRADE_BRAN": "JURONG POLICE DIVISIONAL HEADQUARTER", "HOUSE_BLK_": "2", "ROAD_NAME": "JURONG WEST AVENUE 5", "LEVEL_NO": "", "UNIT_NO": "", "POSTAL_CD": "649482"}}, {"type": "Feature", "id": 81, "geometry": {"type": "Point", "coordinates": [103.714522612971, 1.34932652859807]}, "properties": {"OBJECTID": 81, "TRADE_NAME": "NEIGHBOURHOOD POLICE CENTRES", "TRADE_BRAN": "JURONG WEST", "HOUSE_BLK_": "700", "ROAD_NAME": "CORPORATION ROAD", "LEVEL_NO": "", "UNIT_NO": "", "POSTAL_CD": "649818"}}, {"type": "Feature", "id": 82, "geometry": {"type": "Point", "coordinates": [103.719781155197, 1.34852829058154]}, "properties": {"OBJECTID": 82, "TRADE_NAME": "NEIGHBOURHOOD POLICE POSTS", "TRADE_BRAN": "HONG KAH SOUTH", "HOUSE_BLK_": "510", "ROAD_NAME": "JURONG WEST STREET 52", "LEVEL_NO": "01", "UNIT_NO": "90", "POSTAL_CD": "640510"}}, {"type": "Feature", "id": 83, "geometry": {"type": "Point", "coordinates": [103.748094096106, 1.34835438819506]}, "properties": {"OBJECTID": 83, "TRADE_NAME": "NEIGHBOURHOOD POLICE POSTS", "TRADE_BRAN": "BUKIT BATOK", "HOUSE_BLK_": "103", "ROAD_NAME": "BUKIT BATOK CENTRAL", "LEVEL_NO": "01", "UNIT_NO": "00", "POSTAL_CD": "650103"}}, {"type": "Feature", "id": 84, "geometry": {"type": "Point", "coordinates": [103.749882092641, 1.35998400367124]}, "properties": {"OBJECTID": 84, "TRADE_NAME": "NEIGHBOURHOOD POLICE POSTS", "TRADE_BRAN": "HONG KAH NORTH", "HOUSE_BLK_": "370", "ROAD_NAME": "BUKIT BATOK STREET 31", "LEVEL_NO": "01", "UNIT_NO": "201", "POSTAL_CD": "650370"}}, {"type": "Feature", "id": 85, "geometry": {"type": "Point", "coordinates": [103.758531000853, 1.3490866448762]}, "properties": {"OBJECTID": 85, "TRADE_NAME": "NEIGHBOURHOOD POLICE CENTRES", "TRADE_BRAN": "BUKIT BATOK", "HOUSE_BLK_": "21", "ROAD_NAME": "BUKIT BATOK EAST AVENUE 4", "LEVEL_NO": "", "UNIT_NO": "", "POSTAL_CD": "659840"}}, {"type": "Feature", "id": 86, "geometry": {"type": "Point", "coordinates": [103.837473457469, 1.3549930484263]}, "properties": {"OBJECTID": 86, "TRADE_NAME": "NEIGHBOURHOOD POLICE POSTS", "TRADE_BRAN": "THOMSON", "HOUSE_BLK_": "25", "ROAD_NAME": "SIN MING ROAD", "LEVEL_NO": "01", "UNIT_NO": "180", "POSTAL_CD": "570025"}}, {"type": "Feature", "id": 87, "geometry": {"type": "Point", "coordinates": [103.847715258733, 1.35780205426143]}, "properties": {"OBJECTID": 87, "TRADE_NAME": "NEIGHBOURHOOD POLICE CENTRES", "TRADE_BRAN": "BISHAN", "HOUSE_BLK_": "20", "ROAD_NAME": "BISHAN STREET 23", "LEVEL_NO": "", "UNIT_NO": "", "POSTAL_CD": "579757"}}, {"type": "Feature", "id": 88, "geometry": {"type": "Point", "coordinates": [103.850312170216, 1.34816798471538]}, "properties": {"OBJECTID": 88, "TRADE_NAME": "NEIGHBOURHOOD POLICE POSTS", "TRADE_BRAN": "BISHAN", "HOUSE_BLK_": "196", "ROAD_NAME": "BISHAN STREET 13", "LEVEL_NO": "01", "UNIT_NO": "565", "POSTAL_CD": "570196"}}, {"type": "Feature", "id": 89, "geometry": {"type": "Point", "coordinates": [103.870614310413, 1.35197215156632]}, "properties": {"OBJECTID": 89, "TRADE_NAME": "NEIGHBOURHOOD POLICE CENTRES", "TRADE_BRAN": "SERANGOON", "HOUSE_BLK_": "50", "ROAD_NAME": "SERANGOON AVENUE 2", "LEVEL_NO": "01", "UNIT_NO": "02", "POSTAL_CD": "556129"}}, {"type": "Feature", "id": 90, "geometry": {"type": "Point", "coordinates": [103.889053360037, 1.35335659541762]}, "properties": {"OBJECTID": 90, "TRADE_NAME": "NEIGHBOURHOOD POLICE POSTS", "TRADE_BRAN": "PAYA LEBAR", "HOUSE_BLK_": "114", "ROAD_NAME": "HOUGANG AVENUE 1", "LEVEL_NO": "01", "UNIT_NO": "1270", "POSTAL_CD": "530114"}}, {"type": "Feature", "id": 91, "geometry": {"type": "Point", "coordinates": [103.951491025064, 1.35329703028181]}, "properties": {"OBJECTID": 91, "TRADE_NAME": "NEIGHBOURHOOD POLICE POSTS", "TRADE_BRAN": "TAMPINES EAST", "HOUSE_BLK_": "263", "ROAD_NAME": "TAMPINES STREET 21", "LEVEL_NO": "01", "UNIT_NO": "138", "POSTAL_CD": "520263"}}, {"type": "Feature", "id": 92, "geometry": {"type": "Point", "coordinates": [103.954574037742, 1.35885332832759]}, "properties": {"OBJECTID": 92, "TRADE_NAME": "NEIGHBOURHOOD POLICE POSTS", "TRADE_BRAN": "TAMPINES NORTH", "HOUSE_BLK_": "461", "ROAD_NAME": "TAMPINES STREET 44", "LEVEL_NO": "01", "UNIT_NO": "56", "POSTAL_CD": "520461"}}, {"type": "Feature", "id": 94, "geometry": {"type": "Point", "coordinates": [103.771108878511, 1.37684019270938]}, "properties": {"OBJECTID": 94, "TRADE_NAME": "NEIGHBOURHOOD POLICE POSTS", "TRADE_BRAN": "BUKIT PANJANG SOUTH", "HOUSE_BLK_": "124", "ROAD_NAME": "PENDING ROAD", "LEVEL_NO": "01", "UNIT_NO": "00", "POSTAL_CD": "670124"}}, {"type": "Feature", "id": 95, "geometry": {"type": "Point", "coordinates": [103.836983967419, 1.37081634576677]}, "properties": {"OBJECTID": 95, "TRADE_NAME": "NEIGHBOURHOOD POLICE POSTS", "TRADE_BRAN": "KEBUN BARU", "HOUSE_BLK_": "111", "ROAD_NAME": "ANG MO KIO AVENUE 4", "LEVEL_NO": "", "UNIT_NO": "", "POSTAL_CD": "560111"}}, {"type": "Feature", "id": 96, "geometry": {"type": "Point", "coordinates": [103.848704185941, 1.3651412693461]}, "properties": {"OBJECTID": 96, "TRADE_NAME": "NEIGHBOURHOOD POLICE POSTS", "TRADE_BRAN": "TECK GHEE", "HOUSE_BLK_": "321", "ROAD_NAME": "ANG MO KIO AVENUE 1", "LEVEL_NO": "", "UNIT_NO": "", "POSTAL_CD": "560321"}}, {"type": "Feature", "id": 97, "geometry": {"type": "Point", "coordinates": [103.851710803993, 1.36991910035129]}, "properties": {"OBJECTID": 97, "TRADE_NAME": "NEIGHBOURHOOD POLICE CENTRES", "TRADE_BRAN": "ANG MO KIO SOUTH", "HOUSE_BLK_": "81", "ROAD_NAME": "ANG MO KIO AVENUE 3", "LEVEL_NO": "", "UNIT_NO": "", "POSTAL_CD": "569929"}}, {"type": "Feature", "id": 98, "geometry": {"type": "Point", "coordinates": [103.866461158411, 1.36345046804147]}, "properties": {"OBJECTID": 98, "TRADE_NAME": "NEIGHBOURHOOD POLICE POSTS", "TRADE_BRAN": "SERANGOON GARDENS", "HOUSE_BLK_": "51", "ROAD_NAME": "SERANGOON GARDEN WAY", "LEVEL_NO": "", "UNIT_NO": "", "POSTAL_CD": "555947"}}, {"type": "Feature", "id": 99, "geometry": {"type": "Point", "coordinates": [103.871279457558, 1.36990058539187]}, "properties": {"OBJECTID": 99, "TRADE_NAME": "NEIGHBOURHOOD POLICE POSTS", "TRADE_BRAN": "SERANGOON NORTH", "HOUSE_BLK_": "108", "ROAD_NAME": "SERANGOON NORTH AVENUE 1", "LEVEL_NO": "01", "UNIT_NO": "709", "POSTAL_CD": "550108"}}, {"type": "Feature", "id": 100, "geometry": {"type": "Point", "coordinates": [103.884983989665, 1.37425555781625]}, "properties": {"OBJECTID": 100, "TRADE_NAME": "NEIGHBOURHOOD POLICE CENTRES", "TRADE_BRAN": "HOUGANG", "HOUSE_BLK_": "60", "ROAD_NAME": "HOUGANG AVENUE 9", "LEVEL_NO": "", "UNIT_NO": "", "POSTAL_CD": "538775"}}, {"type": "Feature", "id": 101, "geometry": {"type": "Point", "coordinates": [103.899211338947, 1.37294940395892]}, "properties": {"OBJECTID": 101, "TRADE_NAME": "NEIGHBOURHOOD POLICE POSTS", "TRADE_BRAN": "HOUGANG", "HOUSE_BLK_": "357", "ROAD_NAME": "HOUGANG AVENUE 7", "LEVEL_NO": "01", "UNIT_NO": "805", "POSTAL_CD": "530357"}}, {"type": "Feature", "id": 102, "geometry": {"type": "Point", "coordinates": [103.959597007979, 1.36835631099651]}, "properties": {"OBJECTID": 102, "TRADE_NAME": "NEIGHBOURHOOD POLICE CENTRES", "TRADE_BRAN": "PASIR RIS", "HOUSE_BLK_": "1", "ROAD_NAME": "PASIR RIS DRIVE 4", "LEVEL_NO": "01", "UNIT_NO": "01", "POSTAL_CD": "519457"}}, {"type": "Feature", "id": 103, "geometry": {"type": "Point", "coordinates": [103.751800988704, 1.37934382149421]}, "properties": {"OBJECTID": 103, "TRADE_NAME": "NEIGHBOURHOOD POLICE POSTS", "TRADE_BRAN": "CHOA CHU KANG", "HOUSE_BLK_": "116", "ROAD_NAME": "TECK WHYE LANE", "LEVEL_NO": "01", "UNIT_NO": "740", "POSTAL_CD": "680116"}}, {"type": "Feature", "id": 104, "geometry": {"type": "Point", "coordinates": [103.771719585051, 1.38688900127313]}, "properties": {"OBJECTID": 104, "TRADE_NAME": "NEIGHBOURHOOD POLICE CENTRES", "TRADE_BRAN": "BUKIT PANJANG", "HOUSE_BLK_": "1", "ROAD_NAME": "SEGAR ROAD", "LEVEL_NO": "01", "UNIT_NO": "05", "POSTAL_CD": "677738"}}, {"type": "Feature", "id": 105, "geometry": {"type": "Point", "coordinates": [103.845095080896, 1.3850097224599]}, "properties": {"OBJECTID": 105, "TRADE_NAME": "NEIGHBOURHOOD POLICE CENTRES", "TRADE_BRAN": "ANG MO KIO NORTH", "HOUSE_BLK_": "51", "ROAD_NAME": "ANG MO KIO AVENUE 9", "LEVEL_NO": "", "UNIT_NO": "", "POSTAL_CD": "569784"}}, {"type": "Feature", "id": 106, "geometry": {"type": "Point", "coordinates": [103.845136715967, 1.38491893042124]}, "properties": {"OBJECTID": 106, "TRADE_NAME": "POLICE STATIONS", "TRADE_BRAN": "ANG MO KIO POLICE DIVISIONAL HEADQUARTER", "HOUSE_BLK_": "51", "ROAD_NAME": "ANG MO KIO AVENUE 9", "LEVEL_NO": "", "UNIT_NO": "", "POSTAL_CD": "569784"}}, {"type": "Feature", "id": 107, "geometry": {"type": "Point", "coordinates": [103.744971295097, 1.39480564620112]}, "properties": {"OBJECTID": 107, "TRADE_NAME": "NEIGHBOURHOOD POLICE CENTRES", "TRADE_BRAN": "CHOA CHU KANG", "HOUSE_BLK_": "20", "ROAD_NAME": "CHOA CHU KANG STREET 52", "LEVEL_NO": "01", "UNIT_NO": "02", "POSTAL_CD": "689286"}}, {"type": "Feature", "id": 108, "geometry": {"type": "Point", "coordinates": [103.893906098282, 1.39278559581812]}, "properties": {"OBJECTID": 108, "TRADE_NAME": "NEIGHBOURHOOD POLICE CENTRES", "TRADE_BRAN": "SENGKANG", "HOUSE_BLK_": "2", "ROAD_NAME": "SENGKANG SQUARE", "LEVEL_NO": "01", "UNIT_NO": "02", "POSTAL_CD": "545025"}}, {"type": "Feature", "id": 109, "geometry": {"type": "Point", "coordinates": [103.834906864437, 1.41531784764835]}, "properties": {"OBJECTID": 109, "TRADE_NAME": "NEIGHBOURHOOD POLICE CENTRES", "TRADE_BRAN": "YISHUN SOUTH", "HOUSE_BLK_": "32", "ROAD_NAME": "YISHUN STREET 81", "LEVEL_NO": "", "UNIT_NO": "", "POSTAL_CD": "768456"}}, {"type": "Feature", "id": 110, "geometry": {"type": "Point", "coordinates": [103.833376368555, 1.41882572029241]}, "properties": {"OBJECTID": 110, "TRADE_NAME": "NEIGHBOURHOOD POLICE POSTS", "TRADE_BRAN": "NEE SOON SOUTH", "HOUSE_BLK_": "798", "ROAD_NAME": "YISHUN RING ROAD", "LEVEL_NO": "01", "UNIT_NO": "3352", "POSTAL_CD": "760798"}}, {"type": "Feature", "id": 111, "geometry": {"type": "Point", "coordinates": [103.829957442563, 1.43113737921609]}, "properties": {"OBJECTID": 111, "TRADE_NAME": "NEIGHBOURHOOD POLICE POSTS", "TRADE_BRAN": "CHONG PANG", "HOUSE_BLK_": "141", "ROAD_NAME": "YISHUN RING ROAD", "LEVEL_NO": "", "UNIT_NO": "", "POSTAL_CD": "760141"}}, {"type": "Feature", "id": 112, "geometry": {"type": "Point", "coordinates": [103.840294120554, 1.4293428076083]}, "properties": {"OBJECTID": 112, "TRADE_NAME": "NEIGHBOURHOOD POLICE CENTRES", "TRADE_BRAN": "YISHUN NORTH", "HOUSE_BLK_": "31", "ROAD_NAME": "YISHUN CENTRAL", "LEVEL_NO": "", "UNIT_NO": "", "POSTAL_CD": "768827"}}, {"type": "Feature", "id": 113, "geometry": {"type": "Point", "coordinates": [103.773954877258, 1.44209907030513]}, "properties": {"OBJECTID": 113, "TRADE_NAME": "NEIGHBOURHOOD POLICE POSTS", "TRADE_BRAN": "BUKIT PANJANG NORTH", "HOUSE_BLK_": "27", "ROAD_NAME": "MARSILING DRIVE", "LEVEL_NO": "01", "UNIT_NO": "237", "POSTAL_CD": "730027"}}, {"type": "Feature", "id": 114, "geometry": {"type": "Point", "coordinates": [103.778321383998, 1.44235197105092]}, "properties": {"OBJECTID": 114, "TRADE_NAME": "NEIGHBOURHOOD POLICE POSTS", "TRADE_BRAN": "MARSILING", "HOUSE_BLK_": "16", "ROAD_NAME": "MARSILING LANE", "LEVEL_NO": "01", "UNIT_NO": "183", "POSTAL_CD": "730016"}}, {"type": "Feature", "id": 115, "geometry": {"type": "Point", "coordinates": [103.80237710248, 1.43887535817217]}, "properties": {"OBJECTID": 115, "TRADE_NAME": "NEIGHBOURHOOD POLICE CENTRES", "TRADE_BRAN": "WOODLANDS EAST", "HOUSE_BLK_": "3", "ROAD_NAME": "WOODLANDS DRIVE 63", "LEVEL_NO": "", "UNIT_NO": "", "POSTAL_CD": "737890"}}, {"type": "Feature", "id": 116, "geometry": {"type": "Point", "coordinates": [103.819697009878, 1.44529527721654]}, "properties": {"OBJECTID": 116, "TRADE_NAME": "NEIGHBOURHOOD POLICE CENTRES", "TRADE_BRAN": "SEMBAWANG", "HOUSE_BLK_": "4", "ROAD_NAME": "SEMBAWANG CRESCENT", "LEVEL_NO": "", "UNIT_NO": "", "POSTAL_CD": "757633"}}, {"type": "Feature", "id": 117, "geometry": {"type": "Point", "coordinates": [103.835574614682, 1.25551998660169]}, "properties": {"OBJECTID": 117, "TRADE_NAME": "POLICE COAST GUARDS", "TRADE_BRAN": "POLICE COAST GUARD HEADQUARTERS BRANI BASE", "HOUSE_BLK_": "11", "ROAD_NAME": "BRANI WAY", "LEVEL_NO": "", "UNIT_NO": "", "POSTAL_CD": "098658"}}, {"type": "Feature", "id": 118, "geometry": {"type": "Point", "coordinates": [103.671819586768, 1.30698730310428]}, "properties": {"OBJECTID": 118, "TRADE_NAME": "POLICE COAST GUARDS", "TRADE_BRAN": "POLICE COAST GUARD GUL BASE", "HOUSE_BLK_": "9", "ROAD_NAME": "PIONEER PLACE", "LEVEL_NO": "", "UNIT_NO": "", "POSTAL_CD": "627864"}}, {"type": "Feature", "id": 119, "geometry": {"type": "Point", "coordinates": [103.707143418513, 1.44499816828885]}, "properties": {"OBJECTID": 119, "TRADE_NAME": "POLICE COAST GUARDS", "TRADE_BRAN": "POLICE COAST GUARD LIM CHU KANG BASE", "HOUSE_BLK_": "695", "ROAD_NAME": "LIM CHU KANG ROAD", "LEVEL_NO": "", "UNIT_NO": "", "POSTAL_CD": "709654"}}, {"type": "Feature", "id": 120, "geometry": {"type": "Point", "coordinates": [103.97145975623, 1.40247061531971]}, "properties": {"OBJECTID": 120, "TRADE_NAME": "POLICE COAST GUARDS", "TRADE_BRAN": "POLICE COAST GUARD PULAU UBIN BASE", "HOUSE_BLK_": "0", "ROAD_NAME": "PULAU UBIN", "LEVEL_NO": "", "UNIT_NO": "", "POSTAL_CD": ""}}, {"type": "Feature", "id": 121, "geometry": {"type": "Point", "coordinates": [103.891354664094, 1.33018332880566]}, "properties": {"OBJECTID": 121, "TRADE_NAME": "POLICE OFFICES", "TRADE_BRAN": "TRAFFIC POLICE DEPARTMENT", "HOUSE_BLK_": "10", "ROAD_NAME": "UBI AVENUE 3", "LEVEL_NO": "", "UNIT_NO": "", "POSTAL_CD": "408865"}}, {"type": "Feature", "id": 122, "geometry": {"type": "Point", "coordinates": [103.834184089444, 1.3298274512239]}, "properties": {"OBJECTID": 122, "TRADE_NAME": "THOMSON POLICE COMPLEX", "TRADE_BRAN": "", "HOUSE_BLK_": "1", "ROAD_NAME": "MOUNT PLEASANT ROAD", "LEVEL_NO": "", "UNIT_NO": "", "POSTAL_CD": "298333"}}, {"type": "Feature", "id": 123, "geometry": {"type": "Point", "coordinates": [103.741833048294, 1.39758293259737]}, "properties": {"OBJECTID": 123, "TRADE_NAME": "POLICE OFFICES", "TRADE_BRAN": "POLICE K-9 UNIT", "HOUSE_BLK_": "2", "ROAD_NAME": "MOWBRAY ROAD", "LEVEL_NO": "", "UNIT_NO": "", "POSTAL_CD": "688253"}}, {"type": "Feature", "id": 124, "geometry": {"type": "Point", "coordinates": [103.999514996342, 1.38562159267235]}, "properties": {"OBJECTID": 124, "TRADE_NAME": "POLICE PASS OFFICE", "TRADE_BRAN": "", "HOUSE_BLK_": "4", "ROAD_NAME": "AIRLINE ROAD", "LEVEL_NO": "", "UNIT_NO": "", "POSTAL_CD": "819825"}}, {"type": "Feature", "id": 125, "geometry": {"type": "Point", "coordinates": [103.971434336133, 1.38609182231303]}, "properties": {"OBJECTID": 125, "TRADE_NAME": "POLICE COAST GUARDS", "TRADE_BRAN": "POLICE COAST GUARD LOYANG REGIONAL BASE", "HOUSE_BLK_": "91", "ROAD_NAME": "LOYANG WAY", "LEVEL_NO": "", "UNIT_NO": "", "POSTAL_CD": "508773"}}, {"type": "Feature", "id": 126, "geometry": {"type": "Point", "coordinates": [103.850093366933, 1.33963408863903]}, "properties": {"OBJECTID": 126, "TRADE_NAME": "POLICE OFFICES", "TRADE_BRAN": "POLICE SECURITY COMMAND", "HOUSE_BLK_": "2", "ROAD_NAME": "LORONG 4 TOA PAYOH", "LEVEL_NO": "", "UNIT_NO": "", "POSTAL_CD": "319513"}}, {"type": "Feature", "id": 127, "geometry": {"type": "Point", "coordinates": [103.721557394137, 1.37376143706276]}, "properties": {"OBJECTID": 127, "TRADE_NAME": "POLICE OFFICES", "TRADE_BRAN": "HOME TEAM ACADEMY", "HOUSE_BLK_": "501", "ROAD_NAME": "OLD CHOA CHU KANG ROAD", "LEVEL_NO": "", "UNIT_NO": "", "POSTAL_CD": "698928"}}, {"type": "Feature", "id": 128, "geometry": {"type": "Point", "coordinates": [103.891483884418, 1.31182282735388]}, "properties": {"OBJECTID": 128, "TRADE_NAME": "POLICE OFFICES", "TRADE_BRAN": "POLICE LOGISTICS DEPARTMENT (POLICE LOGISTICS BASE)", "HOUSE_BLK_": "1", "ROAD_NAME": "HEMMANT ROAD", "LEVEL_NO": "", "UNIT_NO": "", "POSTAL_CD": "438675"}}, {"type": "Feature", "id": 129, "geometry": {"type": "Point", "coordinates": [103.881306705825, 1.3391914333228]}, "properties": {"OBJECTID": 129, "TRADE_NAME": "GURKHA CANTONMENT", "TRADE_BRAN": "", "HOUSE_BLK_": "40", "ROAD_NAME": "VERNON PARK", "LEVEL_NO": "", "UNIT_NO": "", "POSTAL_CD": "367829"}}, {"type": "Feature", "id": 130, "geometry": {"type": "Point", "coordinates": [103.980786150138, 1.34318917989266]}, "properties": {"OBJECTID": 130, "TRADE_NAME": "POLICE STATIONS", "TRADE_BRAN": "AIRPORT POLICE STATION", "HOUSE_BLK_": "35", "ROAD_NAME": "AIRPORT BOULEVARD", "LEVEL_NO": "", "UNIT_NO": "", "POSTAL_CD": "819645"}}, {"type": "Feature", "id": 131, "geometry": {"type": "Point", "coordinates": [103.837493961607, 1.32880851473229]}, "properties": {"OBJECTID": 131, "TRADE_NAME": "POLICE OFFICES", "TRADE_BRAN": "POLICE NATIONAL SERVICE DEPARTMENT", "HOUSE_BLK_": "1", "ROAD_NAME": "MOUNT PLEASANT ROAD", "LEVEL_NO": "", "UNIT_NO": "", "POSTAL_CD": "298333"}}, {"type": "Feature", "id": 132, "geometry": {"type": "Point", "coordinates": [104.000422668763, 1.38150056194933]}, "properties": {"OBJECTID": 132, "TRADE_NAME": "POLICE GUARD POST", "TRADE_BRAN": "", "HOUSE_BLK_": "15", "ROAD_NAME": "ALPS AVENUE", "LEVEL_NO": "", "UNIT_NO": "", "POSTAL_CD": "498806"}}, {"type": "Feature", "id": 133, "geometry": {"type": "Point", "coordinates": [103.84502122891, 1.32428846264276]}, "properties": {"OBJECTID": 133, "TRADE_NAME": "POLICE OFFICES", "TRADE_BRAN": "POLICE CUSTODIAL DEPARTMENT", "HOUSE_BLK_": "28", "ROAD_NAME": "IRRAWADDY ROAD", "LEVEL_NO": "", "UNIT_NO": "", "POSTAL_CD": "329560"}}, {"type": "Feature", "id": 134, "geometry": {"type": "Point", "coordinates": [103.845062687982, 1.32424705159031]}, "properties": {"OBJECTID": 134, "TRADE_NAME": "POLICE OFFICES", "TRADE_BRAN": "SECURITY INDUSTRY REGULATORY DEPARTMENT", "HOUSE_BLK_": "28", "ROAD_NAME": "IRRAWADDY ROAD", "LEVEL_NO": "", "UNIT_NO": "", "POSTAL_CD": "329560"}}, {"type": "Feature", "id": 135, "geometry": {"type": "Point", "coordinates": [103.905710956842, 1.31681112367994]}, "properties": {"OBJECTID": 135, "TRADE_NAME": "POLICE OFFICES", "TRADE_BRAN": "POLICE LOGISTICS DEPARTMENT (STILL ROAD BASE)", "HOUSE_BLK_": "170", "ROAD_NAME": "STILL ROAD", "LEVEL_NO": "", "UNIT_NO": "", "POSTAL_CD": "424008"}}, {"type": "Feature", "id": 136, "geometry": {"type": "Point", "coordinates": [103.881915420725, 1.33849393037474]}, "properties": {"OBJECTID": 136, "TRADE_NAME": "GURKHA CANTONMENT", "TRADE_BRAN": "", "HOUSE_BLK_": "42", "ROAD_NAME": "VERNON PARK", "LEVEL_NO": "", "UNIT_NO": "", "POSTAL_CD": "367830"}}, {"type": "Feature", "id": 137, "geometry": {"type": "Point", "coordinates": [103.880810373732, 1.33995491273271]}, "properties": {"OBJECTID": 137, "TRADE_NAME": "GURKHA CANTONMENT", "TRADE_BRAN": "", "HOUSE_BLK_": "13", "ROAD_NAME": "VERNON PARK", "LEVEL_NO": "", "UNIT_NO": "", "POSTAL_CD": "367835"}}, {"type": "Feature", "id": 138, "geometry": {"type": "Point", "coordinates": [103.881522110694, 1.33963443006231]}, "properties": {"OBJECTID": 138, "TRADE_NAME": "GURKHA CANTONMENT", "TRADE_BRAN": "", "HOUSE_BLK_": "52", "ROAD_NAME": "VERNON PARK", "LEVEL_NO": "", "UNIT_NO": "", "POSTAL_CD": "367820"}}, {"type": "Feature", "id": 139, "geometry": {"type": "Point", "coordinates": [103.881456524187, 1.33803208791591]}, "properties": {"OBJECTID": 139, "TRADE_NAME": "GURKHA CANTONMENT", "TRADE_BRAN": "", "HOUSE_BLK_": "70", "ROAD_NAME": "VERNON PARK", "LEVEL_NO": "", "UNIT_NO": "", "POSTAL_CD": "367827"}}, {"type": "Feature", "id": 140, "geometry": {"type": "Point", "coordinates": [103.88155952211, 1.33714608478939]}, "properties": {"OBJECTID": 140, "TRADE_NAME": "GURKHA CANTONMENT", "TRADE_BRAN": "", "HOUSE_BLK_": "68", "ROAD_NAME": "VERNON PARK", "LEVEL_NO": "", "UNIT_NO": "", "POSTAL_CD": "367826"}}, {"type": "Feature", "id": 141, "geometry": {"type": "Point", "coordinates": [103.88073541132, 1.33779646361684]}, "properties": {"OBJECTID": 141, "TRADE_NAME": "GURKHA CANTONMENT", "TRADE_BRAN": "", "HOUSE_BLK_": "66", "ROAD_NAME": "VERNON PARK", "LEVEL_NO": "", "UNIT_NO": "", "POSTAL_CD": "367825"}}, {"type": "Feature", "id": 142, "geometry": {"type": "Point", "coordinates": [103.880707307056, 1.33727805907972]}, "properties": {"OBJECTID": 142, "TRADE_NAME": "GURKHA CANTONMENT", "TRADE_BRAN": "", "HOUSE_BLK_": "64", "ROAD_NAME": "VERNON PARK", "LEVEL_NO": "", "UNIT_NO": "", "POSTAL_CD": "367824"}}, {"type": "Feature", "id": 143, "geometry": {"type": "Point", "coordinates": [103.880023664435, 1.33757026420377]}, "properties": {"OBJECTID": 143, "TRADE_NAME": "GURKHA CANTONMENT", "TRADE_BRAN": "", "HOUSE_BLK_": "62", "ROAD_NAME": "VERNON PARK", "LEVEL_NO": "", "UNIT_NO": "", "POSTAL_CD": "367823"}}, {"type": "Feature", "id": 144, "geometry": {"type": "Point", "coordinates": [103.879536696314, 1.33829604024287]}, "properties": {"OBJECTID": 144, "TRADE_NAME": "GURKHA CANTONMENT", "TRADE_BRAN": "", "HOUSE_BLK_": "60", "ROAD_NAME": "VERNON PARK", "LEVEL_NO": "", "UNIT_NO": "", "POSTAL_CD": "367822"}}, {"type": "Feature", "id": 145, "geometry": {"type": "Point", "coordinates": [103.88209336398, 1.33889922577254]}, "properties": {"OBJECTID": 145, "TRADE_NAME": "GURKHA CANTONMENT", "TRADE_BRAN": "", "HOUSE_BLK_": "50", "ROAD_NAME": "VERNON PARK", "LEVEL_NO": "", "UNIT_NO": "", "POSTAL_CD": "367819"}}, {"type": "Feature", "id": 146, "geometry": {"type": "Point", "coordinates": [103.879508577654, 1.33704244272914]}, "properties": {"OBJECTID": 146, "TRADE_NAME": "GURKHA CANTONMENT", "TRADE_BRAN": "", "HOUSE_BLK_": "102", "ROAD_NAME": "VERNON PARK", "LEVEL_NO": "", "UNIT_NO": "", "POSTAL_CD": "367833"}}, {"type": "Feature", "id": 147, "geometry": {"type": "Point", "coordinates": [103.878646985252, 1.33654290525497]}, "properties": {"OBJECTID": 147, "TRADE_NAME": "GURKHA CANTONMENT", "TRADE_BRAN": "", "HOUSE_BLK_": "100", "ROAD_NAME": "VERNON PARK", "LEVEL_NO": "", "UNIT_NO": "", "POSTAL_CD": "367832"}}, {"type": "Feature", "id": 148, "geometry": {"type": "Point", "coordinates": [103.879349356606, 1.33621299722011]}, "properties": {"OBJECTID": 148, "TRADE_NAME": "GURKHA CANTONMENT", "TRADE_BRAN": "", "HOUSE_BLK_": "104", "ROAD_NAME": "VERNON PARK", "LEVEL_NO": "", "UNIT_NO": "", "POSTAL_CD": "367834"}}, {"type": "Feature", "id": 149, "geometry": {"type": "Point", "coordinates": [103.878853053265, 1.33858824505102]}, "properties": {"OBJECTID": 149, "TRADE_NAME": "GURKHA CANTONMENT", "TRADE_BRAN": "", "HOUSE_BLK_": "5", "ROAD_NAME": "VERNON PARK", "LEVEL_NO": "", "UNIT_NO": "", "POSTAL_CD": "367831"}}, {"type": "Feature", "id": 150, "geometry": {"type": "Point", "coordinates": [103.848994254287, 1.27473549935131]}, "properties": {"OBJECTID": 150, "TRADE_NAME": "NEIGHBOURHOOD POLICE CENTRES", "TRADE_BRAN": "MARINA BAY", "HOUSE_BLK_": "70", "ROAD_NAME": "MARINA VIEW", "LEVEL_NO": "", "UNIT_NO": "", "POSTAL_CD": "018962"}}, {"type": "Feature", "id": 152, "geometry": {"type": "Point", "coordinates": [103.775855682282, 1.44357166516023]}, "properties": {"OBJECTID": 152, "TRADE_NAME": "NEIGHBOURHOOD POLICE CENTRE", "TRADE_BRAN": "WOODLANDS WEST", "HOUSE_BLK_": "9", "ROAD_NAME": "MARSILING LANE", "LEVEL_NO": "", "UNIT_NO": "", "POSTAL_CD": "739146"}}, {"type": "Feature", "id": 153, "geometry": {"type": "Point", "coordinates": [103.917122253074, 1.39412714062691]}, "properties": {"OBJECTID": 153, "TRADE_NAME": "NEIGHBOURHOOD POLICE CENTRE", "TRADE_BRAN": "PUNGGOL", "HOUSE_BLK_": "21A", "ROAD_NAME": "TEBING LANE", "LEVEL_NO": "", "UNIT_NO": "", "POSTAL_CD": "828837"}}, {"type": "Feature", "id": 154, "geometry": {"type": "Point", "coordinates": [103.839498427738, 1.27836012881591]}, "properties": {"OBJECTID": 154, "TRADE_NAME": "POLICE OFFICES", "TRADE_BRAN": "POLICE LICENSING AND REGULATORY DEPARTMENT", "HOUSE_BLK_": "391", "ROAD_NAME": "NEW BRIDGE ROAD", "LEVEL_NO": "", "UNIT_NO": "", "POSTAL_CD": "088762"}}, {"type": "Feature", "id": 155, "geometry": {"type": "Point", "coordinates": [103.886144304551, 1.31103119993348]}, "properties": {"OBJECTID": 155, "TRADE_NAME": "NEIGHBOURHOOD POLICE CENTRES", "TRADE_BRAN": "GEYLANG", "HOUSE_BLK_": "0", "ROAD_NAME": "CASSIA LINK", "LEVEL_NO": "", "UNIT_NO": "", "POSTAL_CD": ""}}, {"type": "Feature", "id": 156, "geometry": {"type": "Point", "coordinates": [103.763367863606, 1.40864661960397]}, "properties": {"OBJECTID": 156, "TRADE_NAME": "HOME TEAM TACTICAL CENTRE", "TRADE_BRAN": "", "HOUSE_BLK_": "1", "ROAD_NAME": "MANDAI QUARRY ROAD", "LEVEL_NO": "", "UNIT_NO": "", "POSTAL_CD": "728635"}}]}